id,direccion,esquina,colonia,alcaldia,boton,altavoz,tipo_de_poste,estatus_conectividad,latitud,longitud,geopoint
0,AV. JUAREZ,ENTRE C. JOSE AZUETA Y C. LUIS MOYA,CENTRO,CUAUHTEMOC,SIN BOTON,CON ALTAVOZ,9m,WIFI GRATUITO_ACTIVO,19.435098,-99.14582,"19.435098,-99.14582"
1,AV. JUAREZ,C. LOPEZ,CENTRO,CUAUHTEMOC,CON BOTON,CON ALTAVOZ,9m,WIFI GRATUITO_ACTIVO,19.434242,-99.14188,"19.434242,-99.14188"
2,C. REPUBLICA DE GUATEMALA,C. LORETO,CENTRO,CUAUHTEMOC,CON BOTON,CON ALTAVOZ,9m,WIFI GRATUITO_ACTIVO,19.434369,-99.127634,"19.434369,-99.127634"
3,CALLE 3,EJE 1 PTE. CALZ. VALLEJO,PORVENIR,AZCAPOTZALCO,CON BOTON,CON ALTAVOZ,9m,WIFI GRATUITO_ACTIVO,19.469535,-99.14477,"19.469535,-99.14477"
4,C. PUREPECHA,C. RIO DE LA LAJA,CHALMA DE GUADALUPE,GUSTAVO A. MADERO,CON BOTON,CON ALTAVOZ,9m,WIFI GRATUITO_ACTIVO,19.548879,-99.159368,"19.548879,-99.159368"
5,C. 16 DE SEPTIEMBRE,ENTRE C. 20 DE NOVIEMBRE Y C. 12 DE OCTUBRE,LOMA DE LA PALMA,GUSTAVO A. MADERO,CON BOTON,CON ALTAVOZ,9m,WIFI GRATUITO_ACTIVO,19.550923,-99.142026,"19.550923,-99.142026"
6,EJE 4 SUR XOLA,EJE 2 PTE. GABRIEL MANCERA,DEL VALLE NORTE,BENITO JUAREZ,CON BOTON,CON ALTAVOZ,9m,WIFI GRATUITO_ACTIVO,19.396417,-99.161649,"19.396417,-99.161649"
7,C. RIO NILO,ENTRE CDA. RIO NILO Y AV. DE LAS TORRES,LOMAS DE SAN LORENZO,IZTAPALAPA,CON BOTON,SIN ALTAVOZ,9m,WIFI GRATUITO_ACTIVO,19.325193,-99.065136,"19.325193,-99.065136"
8,C. ADOLFO LOPEZ MATEOS,ENTRE CDA. 20 NOVIEMBRE Y C. 1 DE MAYO,LOMA DE LA PALMA,GUSTAVO A. MADERO,SIN BOTON,CON ALTAVOZ,9m,WIFI GRATUITO_ACTIVO,19.552849,-99.141538,"19.552849,-99.141538"
9,AV. JALISCO PTE.,C. TLAXCALA,BARRIO SANTA MARTHA,MILPA ALTA,CON BOTON,CON ALTAVOZ,9m,WIFI GRATUITO_ACTIVO,19.192596,-99.027833,"19.192596,-99.027833"
10,C. LUIS MOYA,ARTICULO 123,CENTRO,CUAUHTEMOC,CON BOTON,CON ALTAVOZ,9m,WIFI GRATUITO_ACTIVO,19.432563,-99.14514,"19.432563,-99.14514"
11,AV. CENTENARIO,C. ORIENTE 153,SALVADOR DÍAZ MIRÓN,GUSTAVO A. MADERO,CON BOTON,CON ALTAVOZ,9m,WIFI GRATUITO_ACTIVO,19.487352,-99.102227,"19.487352,-99.102227"
12,AV. INSURGENTES SUR,ENTRE C. JUVENTINO ROSAS Y C. FRANCIA,FLORIDA,ALVARO OBREGON,CON BOTON,CON ALTAVOZ,9m,WIFI GRATUITO_ACTIVO,19.35744,-99.184096,"19.35744,-99.184096"
13,C. PLAZA DE SAN JUAN,C. AYUNTAMIENTO,CENTRO,CUAUHTEMOC,CON BOTON,CON ALTAVOZ,9m,WIFI GRATUITO_ACTIVO,19.430521,-99.14365,"19.430521,-99.14365"
14,C. MIGUEL HIDALGO,C. ALBERTO HERRERA,ARAGÓN LA VILLA,GUSTAVO A. MADERO,CON BOTON,CON ALTAVOZ,9m,WIFI GRATUITO_ACTIVO,19.481497,-99.116552,"19.481497,-99.116552"
15,C. ING. BASILIO ROMO ANGUIANO,C. ING. CARLOS DAZA,GUADALUPE INSURGENTES,GUSTAVO A. MADERO,CON BOTON,CON ALTAVOZ,9m,WIFI GRATUITO_ACTIVO,19.47315,-99.132438,"19.47315,-99.132438"
16,AV. HENRY FORD,C. MARTHA,GUADALUPE TEPEYAC,GUSTAVO A. MADERO,CON BOTON,CON ALTAVOZ,9m,WIFI GRATUITO_ACTIVO,19.469871,-99.118204,"19.469871,-99.118204"
17,ING. NORBERTO GAYOL,EXCELSIOR,GUADALUPE INSURGENTES,GUSTAVO A. MADERO,CON BOTON,CON ALTAVOZ,9m,WIFI GRATUITO_ACTIVO,19.474682,-99.130871,"19.474682,-99.130871"
18,AV. 521,3ra. CDA. AV. 515,U. H. SAN JUAN DE ARAGON 1ra. SECC.,GUSTAVO A. MADERO,SIN BOTON,SIN ALTAVOZ,9m,WIFI GRATUITO_ACTIVO,19.457976,-99.091869,"19.457976,-99.091869"
19,C. PLAYA,C. NAVE,U. H. PATERA VALLEJO,GUSTAVO A. MADERO,CON BOTON,CON ALTAVOZ,9m,WIFI GRATUITO_ACTIVO,19.503872,-99.155919,"19.503872,-99.155919"
20,C. JAIME NUNO,AVENIDA TECNOLOGICO,ZONA ESCOLAR,GUSTAVO A. MADERO,SIN BOTON,CON ALTAVOZ,9m,WIFI GRATUITO_ACTIVO,19.542676,-99.147149,"19.542676,-99.147149"
21,C. IZTACCIHUATL,C. ITZCOATL,SANTA ISABEL TOLA,GUSTAVO A. MADERO,CON BOTON,CON ALTAVOZ,9m,WIFI GRATUITO_ACTIVO,19.495577,-99.115095,"19.495577,-99.115095"
22,C. BALDERAS,C. AYUNTAMIENTO,CENTRO,CUAUHTEMOC,CON BOTON,CON ALTAVOZ,9m,WIFI GRATUITO_ACTIVO,19.431178,-99.147999,"19.431178,-99.147999"
23,AV. CANAL DE MIRAMONTES (EJE 2 ORIENTE CANAL DE MIRAMONTES),C. LIRA,PRADOS DE COYOACAN,COYOACAN,CON BOTON,CON ALTAVOZ,9m,WIFI GRATUITO_ACTIVO,19.318667,-99.131078,"19.318667,-99.131078"
24,C. FRANZ HALS,CDA. FRANZ HALS,ALFONSO XIII,ALVARO OBREGON,CON BOTON,CON ALTAVOZ,9m,WIFI GRATUITO_ACTIVO,19.375965,-99.195758,"19.375965,-99.195758"
25,C. SANTA BALBINA,AV. RIO SANTO DOMINGO,MOLINO DE SANTO DOMINGO,ALVARO OBREGON,SIN BOTON,CON ALTAVOZ,9m,WIFI GRATUITO_ACTIVO,19.395326,-99.209462,"19.395326,-99.209462"
26,AV. ESCUADRÓN 201,C. 4,CRISTO REY,ALVARO OBREGON,CON BOTON,CON ALTAVOZ,9m,REPORTE DE FALLA,19.387171,-99.19936,"19.387171,-99.19936"
27,C. MONDOVIES,C. ANTIGUA VIA LA VENTA,ISIDRO FABELA,ALVARO OBREGON,CON BOTON,CON ALTAVOZ,9m,WIFI GRATUITO_ACTIVO,19.385736,-99.209,"19.385736,-99.209"
28,C. TOLUCA,C. TRANSMISIONES,OLIVAR DE LOS PADRES,ALVARO OBREGON,CON BOTON,SIN ALTAVOZ,9m,WIFI GRATUITO_ACTIVO,19.340809,-99.209495,"19.340809,-99.209495"
29,C. EMILIANO ZAPATA,C. PARROQUIA,AMPL. TLACOYAQUE,ALVARO OBREGON,SIN BOTON,CON ALTAVOZ,9m,WIFI GRATUITO_ACTIVO,19.318284,-99.266557,"19.318284,-99.266557"
30,CALZ. DE TLALPAN,C. RIO  CHURUBUSCO,SAN DIEGO CHURUBUSCO,COYOACAN,CON BOTON,CON ALTAVOZ,9m,WIFI GRATUITO_ACTIVO,19.35633,-99.144346,"19.35633,-99.144346"
31,C. LUDWIC VAN BEETHOVEN,C. ADELINA PATTI,PERALVILLO,CUAUHTEMOC,SIN BOTON,CON ALTAVOZ,9m,WIFI GRATUITO_ACTIVO,19.459666,-99.129435,"19.459666,-99.129435"
32,C. DR. ATL,C. SALVADOR DIAZ MIRON,SANTA MARIA LA RIBERA,CUAUHTEMOC,CON BOTON,CON ALTAVOZ,9m,WIFI GRATUITO_ACTIVO,19.448676,-99.156388,"19.448676,-99.156388"
33,C. AYUNTAMIENTO,C. LOPEZ,CENTRO,CUAUHTEMOC,SIN BOTON,CON ALTAVOZ,9m,WIFI GRATUITO_ACTIVO,19.430341,-99.14239,"19.430341,-99.14239"
34,C- CITLI,C. HUITZILIHUITL,SANTA ISABEL TOLA,GUSTAVO A. MADERO,CON BOTON,CON ALTAVOZ,9m,WIFI GRATUITO_ACTIVO,19.501386,-99.112376,"19.501386,-99.112376"
35,C. TEPALCATZIN,C. CUAUHTEMOC,SANTA ISABEL TOLA,GUSTAVO A. MADERO,CON BOTON,CON ALTAVOZ,9m,REPORTE DE FALLA,19.499019,-99.116509,"19.499019,-99.116509"
36,C. HABANA Y RICARTE,C. FERRERIA,TEPEYAC INSURGENTES,GUSTAVO A. MADERO,CON BOTON,CON ALTAVOZ,9m,REPORTE DE FALLA,19.482346,-99.123175,"19.482346,-99.123175"
37,C. PERIMETRAL,C. PINOS,SAN JERONIMO LIDICE,MAGDALENA CONTRERAS,CON BOTON,CON ALTAVOZ,9m,WIFI GRATUITO_ACTIVO,19.333113,-99.213756,"19.333113,-99.213756"
38,AV. JUAN N. ALVAREZ,C. MIGUEL GARCIA GARCIA,CAMPAMENTO 2 DE OCTUBRE,IZTACALCO,CON BOTON,CON ALTAVOZ,9m,WIFI GRATUITO_ACTIVO,19.38532,-99.113318,"19.38532,-99.113318"
39,CALZ. ALFONSO TORO,C. GRAL. RADAMES GAXIOLA ANDRADE,ESCUADRON 201,IZTAPALAPA,CON BOTON,CON ALTAVOZ,9m,WIFI GRATUITO_ACTIVO,19.367055,-99.112829,"19.367055,-99.112829"
40,AVENIDA EJE 3 SUR F.C. DE RIO FRIO,C. ORIENTE 229,C.H. REAL DEL MORAL,IZTAPALAPA,CON BOTON,CON ALTAVOZ,9m,WIFI GRATUITO_ACTIVO,19.391457,-99.081948,"19.391457,-99.081948"
41,C. ALDAMA,C. NIÑOS HEROES,SAN JUANICO NEXTIPAC,IZTAPALAPA,CON BOTON,CON ALTAVOZ,9m,WIFI GRATUITO_ACTIVO,19.373471,-99.116918,"19.373471,-99.116918"
42,C. TRABAJADORAS SOCIALES,ENTRE C. MAGISTRADOS Y  C.FISCALES,AMPL. SIFON,IZTAPALAPA,CON BOTON,SIN ALTAVOZ,9m,WIFI GRATUITO_ACTIVO,19.373693,-99.113704,"19.373693,-99.113704"
43,C. PALMAS,C. JACARANDAS,EL TORO,MAGDALENA CONTRERAS,CON BOTON,CON ALTAVOZ,9m,WIFI GRATUITO_ACTIVO,19.313648,-99.248303,"19.313648,-99.248303"
44,C. OCOTLAN,AV. SAN BERNABE,BARROS SIERRA,MAGDALENA CONTRERAS,CON BOTON,CON ALTAVOZ,9m,WIFI GRATUITO_ACTIVO,19.317553,-99.247519,"19.317553,-99.247519"
45,AV. OJO DE AGUA,C. CARBONEROS,PUEBLO SAN BERNABE OCOTEPEC,MAGDALENA CONTRERAS,CON BOTON,CON ALTAVOZ,9m,WIFI GRATUITO_ACTIVO,19.309364,-99.263401,"19.309364,-99.263401"
46,AV. CONTRERAS,C. TARASQUILLO,PUENTE SIERRA,MAGDALENA CONTRERAS,CON BOTON,CON ALTAVOZ,9m,WIFI GRATUITO_ACTIVO,19.329562,-99.2126,"19.329562,-99.2126"
47,CTO.  BOSQUE DE CHAPULTEPEC,AV. CONSTITUYENTES,BOSQUE DE CHAPULTEPEC 2A. SECC.,MIGUEL HIDALGO,CON BOTON,CON ALTAVOZ,9m,WIFI GRATUITO_ACTIVO,19.411963,-99.198082,"19.411963,-99.198082"
48,AV. PASEO DE LA REFORMA,ENTRE CALZ. CHIVATITO Y CALZ. MAHATMA GHANDI,BOSQUE DE CHAPULTEPEC 1A SECC.,MIGUEL HIDALGO,CON BOTON,CON ALTAVOZ,9m,WIFI GRATUITO_ACTIVO,19.424306,-99.181838,"19.424306,-99.181838"
49,AV. CONSTITUYENTES,C. JOSE MARIA VELASCO,BOSQUE DE CHAPULTEPEC 3a. SECC.,MIGUEL HIDALGO,CON BOTON,CON ALTAVOZ,9m,WIFI GRATUITO_ACTIVO,19.398587,-99.21892,"19.398587,-99.21892"
50,C. ESQUIROS,C. ALDAMA,AMPL. COSMOPOLITA,AZCAPOTZALCO,CON BOTON,CON ALTAVOZ,9m,WIFI GRATUITO_ACTIVO,19.472696,-99.160461,"19.472696,-99.160461"
51,C. LA CAPA,C. FRANCISCO I. MADERO,MIGUEL HIDALGO,TLAHUAC,CON BOTON,SIN ALTAVOZ,9m,WIFI GRATUITO_ACTIVO,19.288735,-99.046655,"19.288735,-99.046655"
52,ANILLO PERIFERICO BLVD. ADOLFO RUIZ CORTINES,ENTRADA AL PARQUE ECOLOGICO DE XOCHIMILCO,BARRIO 18,XOCHIMILCO,SIN BOTON,CON ALTAVOZ,9m,WIFI GRATUITO_ACTIVO,19.297505,-99.094737,"19.297505,-99.094737"
53,PROL. 2 DE ABRIL,PRIVADA PROL. 2 DE ABRIL,PUEBLO SANTA CRUZ ACALPIXCA,XOCHIMILCO,CON BOTON,CON ALTAVOZ,9m,FALLAS DE INFRAESTRUCTURA,19.242257,-99.071429,"19.242257,-99.071429"
54,PROL. DIVISION DEL NORTE,AVENIDA PASEO DE LA NORIA,POTRERO DE SAN BERNARDINO,XOCHIMILCO,SIN BOTON,CON ALTAVOZ,9m,WIFI GRATUITO_ACTIVO,19.273812,-99.119905,"19.273812,-99.119905"
55,AV. INSURGENTES SUR,C. CALVARIO,TLALPAN CENTRO,TLALPAN,CON BOTON,CON ALTAVOZ,9m,WIFI GRATUITO_ACTIVO,19.288648,-99.17426,"19.288648,-99.17426"
56,AVENIDA PIEDRA PALMEADA,2do. AND. P. PALMEADA,AMPL. ISIDRO FABELA,TLALPAN,CON BOTON,CON ALTAVOZ,9m,REPORTE DE FALLA,19.298474,-99.169688,"19.298474,-99.169688"
57,C. DILIGENCIAS,C. LAUREL,C. SAN PEDRO MARTIR,TLALPAN,CON BOTON,SIN ALTAVOZ,9m,WIFI GRATUITO_ACTIVO,19.267622,-99.169777,"19.267622,-99.169777"
58,C. NIÑOS HEROES,AV. MIGUEL HIDALGO,PUEBLO SAN MATEO XALPA,XOCHIMILCO,CON BOTON,CON ALTAVOZ,9m,WIFI GRATUITO_ACTIVO,19.23211,-99.119303,"19.23211,-99.119303"
59,C. 1ro DE NOVIEMBRE,INFORME DE GOBIERNO,LA CONCHITA,ALVARO OBREGON,CON BOTON,CON ALTAVOZ,9m,WIFI GRATUITO_ACTIVO,19.391904,-99.207394,"19.391904,-99.207394"
60,ENTRE EDIF. G-14 Y ESC. JOSE AGUSTIN RAMIREZ ALTAMIRANO,ENTRE EDIF G-13 Y EDIF. G-14,U. H. IMSS SANTA FE,ALVARO OBREGON,SIN BOTON,CON ALTAVOZ,9m,WIFI GRATUITO_ACTIVO,19.388675,-99.207875,"19.388675,-99.207875"
61,C. AUSTRIACOS,C. POLVORA,LIBERALES DE 1857,ALVARO OBREGON,CON BOTON,CON ALTAVOZ,9m,WIFI GRATUITO_ACTIVO,19.39219,-99.212674,"19.39219,-99.212674"
62,C. DE LA PLATA,C. PARALELA 7,U. H. MOLINO DE SANTO DOMINGO,ALVARO OBREGON,CON BOTON,CON ALTAVOZ,9m,WIFI GRATUITO_ACTIVO,19.39448,-99.203597,"19.39448,-99.203597"
63,AV. MEXICANOS,C. BOLIVIANOS,MARIA DE GARCIA RUIZ,ALVARO OBREGON,CON BOTON,CON ALTAVOZ,9m,WIFI GRATUITO_ACTIVO,19.387548,-99.211438,"19.387548,-99.211438"
64,C. JACARANDA,AV. DE LAS ROSAS,BELEN DE LAS FLORES,ALVARO OBREGON,CON BOTON,CON ALTAVOZ,9m,WIFI GRATUITO_ACTIVO,19.393993,-99.218367,"19.393993,-99.218367"
65,AND. LA QUEBRADA,AV. BENITO JUAREZ,BARRIO NORTE,ALVARO OBREGON,CON BOTON,CON ALTAVOZ,9m,WIFI GRATUITO_ACTIVO,19.378819,-99.209376,"19.378819,-99.209376"
66,C. FRANCISCO P. MIRANDA,BLVD. ALTA TENSION,LOMAS DE PLATEROS,ALVARO OBREGON,CON BOTON,CON ALTAVOZ,9m,WIFI GRATUITO_ACTIVO,19.366752,-99.203834,"19.366752,-99.203834"
67,C. 30,AV. HIDALGO,OLIVAR DEL CONDE 2da SECC.,ALVARO OBREGON,CON BOTON,CON ALTAVOZ,9m,WIFI GRATUITO_ACTIVO,19.371101,-99.219804,"19.371101,-99.219804"
68,CAMINO RIO MIXCOAC,,REACOMODO REAL DEL CONDE,ALVARO OBREGON,CON BOTON,CON ALTAVOZ,9m,WIFI GRATUITO_ACTIVO,19.368605,-99.208945,"19.368605,-99.208945"
69,C. ALTO LERMA,CDA. SANTA MONICA,CORPUS CHRISTI (ZONA RUSTICA),ALVARO OBREGON,CON BOTON,CON ALTAVOZ,9m,REPORTE DE FALLA,19.36165,-99.245669,"19.36165,-99.245669"
70,AV. MIGUEL HIDALGO,C. 36,OLIVAR DEL CONDE 2da SECC.,ALVARO OBREGON,CON BOTON,CON ALTAVOZ,9m,WIFI GRATUITO_ACTIVO,19.370282,-99.223321,"19.370282,-99.223321"
71,C. DR. GALVEZ,AV. REVOLUCION,SAN ANGEL,ALVARO OBREGON,CON BOTON,CON ALTAVOZ,9m,WIFI GRATUITO_ACTIVO,19.343718,-99.190521,"19.343718,-99.190521"
72,AV. LOMAS DE CAPULA,C. GOLONDRINA VIAJERA,LAS GOLONDRINAS 1RA SECCION,ALVARO OBREGON,CON BOTON,CON ALTAVOZ,9m,WIFI GRATUITO_ACTIVO,19.38036,-99.210105,"19.38036,-99.210105"
73,C. URRACA,C. ALBATROS,AVE REAL,ALVARO OBREGON,CON BOTON,CON ALTAVOZ,9m,WIFI GRATUITO_ACTIVO,19.359702,-99.23705,"19.359702,-99.23705"
74,AV. TAMAULIPAS,C. MOCTEZUMA,CORPUS CHRISTI,ALVARO OBREGON,CON BOTON,SIN ALTAVOZ,9m,WIFI GRATUITO_ACTIVO,19.361287,-99.250892,"19.361287,-99.250892"
75,AV. GUSTAVO DIAZ ORDAZ,PRIV. G. DIAZ ORDAZ,AMPLIACION JALALPA,ALVARO OBREGON,CON BOTON,CON ALTAVOZ,9m,WIFI GRATUITO_ACTIVO,19.375691,-99.233879,"19.375691,-99.233879"
76,C. HACIENDA DE LA FLOR,C. HACIENDA DE LA GAVIA,AMPL. PRESIDENTES 2a. SECC.,ALVARO OBREGON,CON BOTON,CON ALTAVOZ,9m,WIFI GRATUITO_ACTIVO,19.3727,-99.229648,"19.3727,-99.229648"
77,C. GUTIERREZ ZAMORA,C. REMOLINO,LOS ALPES,ALVARO OBREGON,CON BOTON,CON ALTAVOZ,9m,WIFI GRATUITO_ACTIVO,19.358848,-99.210541,"19.358848,-99.210541"
78,C. BALCON,C. MIRADOR,EL MIRADOR,ALVARO OBREGON,CON BOTON,CON ALTAVOZ,9m,WIFI GRATUITO_ACTIVO,19.343211,-99.22681,"19.343211,-99.22681"
79,C. ORQUIDEAS,ENTRE AV. TORRES Y AV. ROSAS,TORRES DE POTRERO,ALVARO OBREGON,CON BOTON,CON ALTAVOZ,9m,WIFI GRATUITO_ACTIVO,19.332478,-99.249014,"19.332478,-99.249014"
80,C. PORVENIR,ENTRE C. ALUMNOS Y C. HIDALGO,PUEBLO AXOTLA,ALVARO OBREGON,CON BOTON,CON ALTAVOZ,9m,WIFI GRATUITO_ACTIVO,19.356708,-99.174375,"19.356708,-99.174375"
81,C. LA PAZ,AV. REVOLUCION,SAN ANGEL,ALVARO OBREGON,CON BOTON,CON ALTAVOZ,9m,WIFI GRATUITO_ACTIVO,19.346475,-99.189729,"19.346475,-99.189729"
82,C. MIRAMON,C. BENITO JUAREZ,SAN ANGEL,ALVARO OBREGON,CON BOTON,CON ALTAVOZ,9m,WIFI GRATUITO_ACTIVO,19.344943,-99.193376,"19.344943,-99.193376"
83,AV. MEXICO,C. VERACRUZ,PROGRESO,ALVARO OBREGON,CON BOTON,CON ALTAVOZ,9m,WIFI GRATUITO_ACTIVO,19.341185,-99.19967,"19.341185,-99.19967"
84,C. NORTE 35,C. PONIENTE 128,PUEBLO SAN ANDRES DE LAS SALINAS,AZCAPOTZALCO,CON BOTON,CON ALTAVOZ,9m,WIFI GRATUITO_ACTIVO,19.489464,-99.155213,"19.489464,-99.155213"
85,C. OSA MAYOR,C. OSA MAYOR,U. HAB. EL ROSARIO,AZCAPOTZALCO,CON BOTON,CON ALTAVOZ,9m,WIFI GRATUITO_ACTIVO,19.506636,-99.207916,"19.506636,-99.207916"
86,C. VICTOR HERNANDEZ,C. DOROTEO ARANGO,U. HAB. FRANCISCO VILLA,AZCAPOTZALCO,CON BOTON,CON ALTAVOZ,9m,WIFI GRATUITO_ACTIVO,19.497272,-99.203225,"19.497272,-99.203225"
87,C. MERCADERES,AV. DE LAS CULTURAS,AZCAPOTZALCO,AZCAPOTZALCO,CON BOTON,CON ALTAVOZ,9m,WIFI GRATUITO_ACTIVO,19.509873,-99.20353,"19.509873,-99.20353"
88,C. FEDERICO DAVALOS,C. PUENTE DE GUERRA,U. HAB. PRESIDENTE MADERO,AZCAPOTZALCO,CON BOTON,CON ALTAVOZ,9m,WIFI GRATUITO_ACTIVO,19.493396,-99.200691,"19.493396,-99.200691"
89,CAMPO MOLOACAN,AND. CAMPO MOLOACAN,PUEBLO SAN ANDRES,AZCAPOTZALCO,CON BOTON,CON ALTAVOZ,9m,WIFI GRATUITO_ACTIVO,19.493811,-99.185346,"19.493811,-99.185346"
90,C. NORTE 59,EJE 5 NORTE PONIENTE 140,INDUSTRIAL VALLEJO,AZCAPOTZALCO,CON BOTON,CON ALTAVOZ,9m,WIFI GRATUITO_ACTIVO,19.497388,-99.164815,"19.497388,-99.164815"
91,PRIV. 3 AQUILES SERDAN,PRIV. AQUILES SERDAN,SANTO DOMINGO,AZCAPOTZALCO,CON BOTON,CON ALTAVOZ,9m,WIFI GRATUITO_ACTIVO,19.488591,-99.190886,"19.488591,-99.190886"
92,AV. NUEVO LEON,C. PARRAS,HIPODROMO,CUAUHTEMOC,CON BOTON,CON ALTAVOZ,9m,WIFI GRATUITO_ACTIVO,19.41475,-99.170677,"19.41475,-99.170677"
93,FLORESTA,AV. HELIOPOLIS,CLAVERIA,AZCAPOTZALCO,CON BOTON,CON ALTAVOZ,9m,WIFI GRATUITO_ACTIVO,19.469268,-99.186301,"19.469268,-99.186301"
94,EJE 3 NORTE AV CUITLAHUAC,C. 10,AGUILERA,AZCAPOTZALCO,SIN BOTON,CON ALTAVOZ,9m,WIFI GRATUITO_ACTIVO,19.473514,-99.156191,"19.473514,-99.156191"
95,C. CAMINO DEL RECREO,2A PRIV. C. DEL RECREO,DEL RECREO,AZCAPOTZALCO,CON BOTON,CON ALTAVOZ,9m,WIFI GRATUITO_ACTIVO,19.475537,-99.185014,"19.475537,-99.185014"
96,AV. AZCAPOTZALCO,C. OTOÑO,ANGEL ZIMBRON,AZCAPOTZALCO,CON BOTON,CON ALTAVOZ,9m,WIFI GRATUITO_ACTIVO,19.467624,-99.187714,"19.467624,-99.187714"
97,C. MARAVATIO,C. NILO,CLAVERIA,AZCAPOTZALCO,CON BOTON,CON ALTAVOZ,9m,WIFI GRATUITO_ACTIVO,19.46703,-99.179616,"19.46703,-99.179616"
98,C. TOTONACAS,C. TRIQUIS,TEZOZOMOC,AZCAPOTZALCO,CON BOTON,CON ALTAVOZ,9m,WIFI GRATUITO_ACTIVO,19.491049,-99.199312,"19.491049,-99.199312"
99,C. AMADO NERVO,C. REY MAXTLA,PUEBLO SAN FRANCISCO TETECALA,AZCAPOTZALCO,CON BOTON,CON ALTAVOZ,9m,WIFI GRATUITO_ACTIVO,19.479509,-99.192401,"19.479509,-99.192401"
100,C. FELIPE ANGELES,C. FRANCISCO SARABIA,PROVIDENCIA,AZCAPOTZALCO,CON BOTON,CON ALTAVOZ,9m,WIFI GRATUITO_ACTIVO,19.490797,-99.212351,"19.490797,-99.212351"
101,C. JICAMA,C. BOLDO,VICTORIA DE LAS DEMOCRACIAS,AZCAPOTZALCO,CON BOTON,CON ALTAVOZ,9m,WIFI GRATUITO_ACTIVO,19.464725,-99.163003,"19.464725,-99.163003"
102,C. POMARROSA,C. BEGONIAS,NUEVA SANTA MARIA,AZCAPOTZALCO,CON BOTON,CON ALTAVOZ,9m,WIFI GRATUITO_ACTIVO,19.464231,-99.172092,"19.464231,-99.172092"
103,AV. TLATILCO,C. VERBENA,TLATILCO,AZCAPOTZALCO,CON BOTON,CON ALTAVOZ,9m,WIFI GRATUITO_ACTIVO,19.461636,-99.163362,"19.461636,-99.163362"
104,C. DEMOCRACIA,C. SANTA LUCIA,PUEBLO SAN MIGUEL AMANTLA,AZCAPOTZALCO,CON BOTON,CON ALTAVOZ,9m,WIFI GRATUITO_ACTIVO,19.472442,-99.205066,"19.472442,-99.205066"
105,CDA. DE CECATI,CDA. DE CECATI,BARRIO SANTO TOMAS,AZCAPOTZALCO,CON BOTON,CON ALTAVOZ,9m,WIFI GRATUITO_ACTIVO,19.487263,-99.175878,"19.487263,-99.175878"
106,C. RABAUL,C. NORTE 89,SINDICATO MEXICANO DE ELECTRICISTAS,AZCAPOTZALCO,CON BOTON,CON ALTAVOZ,9m,WIFI GRATUITO_ACTIVO,19.476065,-99.179322,"19.476065,-99.179322"
107,AV. MICHOACAN,C. ATLIXCO,CONDESA,CUAUHTEMOC,SIN BOTON,CON ALTAVOZ,9m,WIFI GRATUITO_ACTIVO,19.411512,-99.175421,"19.411512,-99.175421"
108,CALZ. AZCAPOTZALCO LA VILLA,ENTRE C. CASTILLA ORIENTE Y TREBOL,SANTO TOMAS,AZCAPOTZALCO,CON BOTON,CON ALTAVOZ,9m,REPORTE DE FALLA,19.485144,-99.180552,"19.485144,-99.180552"
109,C. SAN FRANCISCO XOCOTITLA,CDA. JORULLO,DEL GAS,AZCAPOTZALCO,CON BOTON,CON ALTAVOZ,9m,WIFI GRATUITO_ACTIVO,19.469673,-99.157253,"19.469673,-99.157253"
110,C. CENTRAL SUR,C. 19,PRO HOGAR,AZCAPOTZALCO,CON BOTON,CON ALTAVOZ,9m,WIFI GRATUITO_ACTIVO,19.474873,-99.150546,"19.474873,-99.150546"
111,AV. 2,C. 3,SAN PEDRO DE LOS PINOS,BENITO JUAREZ,CON BOTON,CON ALTAVOZ,9m,WIFI GRATUITO_ACTIVO,19.394514,-99.18353,"19.394514,-99.18353"
112,C. DONATELLO,C. FRAGONARD,INSURGENTES MIXCOAC,BENITO JUAREZ,CON BOTON,CON ALTAVOZ,9m,WIFI GRATUITO_ACTIVO,19.374793,-99.184672,"19.374793,-99.184672"
113,EJE 4 SUR XOLA,C. MIER Y PESADO,DEL VALLE NORTE,BENITO JUAREZ,CON BOTON,CON ALTAVOZ,9m,WIFI GRATUITO_ACTIVO,19.397053,-99.164627,"19.397053,-99.164627"
114,CTO. INTERIOR REVOLUCION,CALLE 21,SAN PEDRO DE LOS PINOS,BENITO JUAREZ,CON BOTON,CON ALTAVOZ,9m,WIFI GRATUITO_ACTIVO,19.387753,-99.186051,"19.387753,-99.186051"
115,C. REEMOLSOS,C. UNION POSTAL,POSTAL,BENITO JUAREZ,CON BOTON,CON ALTAVOZ,9m,WIFI GRATUITO_ACTIVO,19.391017,-99.140888,"19.391017,-99.140888"
116,C. MITLA,EJE 6 SUR ANGEL URRAZA,INDEPENDENCIA,BENITO JUAREZ,CON BOTON,CON ALTAVOZ,9m,WIFI GRATUITO_ACTIVO,19.379709,-99.151305,"19.379709,-99.151305"
117,C. ENRIQUE REBSAMEN,AV. OBRERO MUNDIAL,PIEDAD NARVARTE,BENITO JUAREZ,CON BOTON,CON ALTAVOZ,9m,WIFI GRATUITO_ACTIVO,19.401338,-99.158565,"19.401338,-99.158565"
118,CALZ. OBRERO MUNDIAL,C. JOSE ENRIQUE PESTALOZZI,PIEDAD NARVARTE,BENITO JUAREZ,CON BOTON,CON ALTAVOZ,9m,WIFI GRATUITO_ACTIVO,19.401619,-99.157782,"19.401619,-99.157782"
119,PROL. XOCHICALCO,AV. REPUBLICAS,SANTA CRUZ ATOYAC,BENITO JUAREZ,CON BOTON,CON ALTAVOZ,9m,WIFI GRATUITO_ACTIVO,19.36447,-99.159163,"19.36447,-99.159163"
120,C. CUICUILCO,C. MITLA,LEANDRO VALLE,BENITO JUAREZ,CON BOTON,CON ALTAVOZ,9m,WIFI GRATUITO_ACTIVO,19.375887,-99.152357,"19.375887,-99.152357"
121,C. RAMON Y CAJAL,AV. DE LAS AMERICAS,MODERNA,BENITO JUAREZ,CON BOTON,CON ALTAVOZ,9m,WIFI GRATUITO_ACTIVO,19.392942,-99.134936,"19.392942,-99.134936"
122,( EJE 4 SUR ) AV. NAPOLEON,C. MIGUEL ANGEL,MODERNA,BENITO JUAREZ,CON BOTON,CON ALTAVOZ,9m,WIFI GRATUITO_ACTIVO,19.393448,-99.135711,"19.393448,-99.135711"
123,AV. SANTA ANA EDIFICIO 3,ENTRE 2DA PRIV. DE SANTA ANNA Y 1ER AND. DE CANAL NACIONAL,U. H. OBRERO CTM SECC. CULHUACAN VII,COYOACAN,CON BOTON,CON ALTAVOZ,9m,WIFI GRATUITO_ACTIVO,19.327433,-99.109507,"19.327433,-99.109507"
124,C. GEMELOS,OSA MAYOR,PRADOS CHURUBUSCO,COYOACAN,CON BOTON,CON ALTAVOZ,9m,WIFI GRATUITO_ACTIVO,19.355347,-99.129079,"19.355347,-99.129079"
125,C. CERRO DEL CUBILETE,C. CERRO BOLUDO,CAMPESTRE CHURUBUSCO,COYOACAN,CON BOTON,CON ALTAVOZ,9m,WIFI GRATUITO_ACTIVO,19.343933,-99.13278,"19.343933,-99.13278"
126,AV. DEL PARQUE,ENTRE RETORNO 45 Y RETORNO 50,AVANTE,COYOACAN,CON BOTON,CON ALTAVOZ,9m,WIFI GRATUITO_ACTIVO,19.325954,-99.134027,"19.325954,-99.134027"
127,C. EUSEBIO ROSAS DE LA ROSA,ENTRE RETORNO 39 Y RETORNO 34,AVANTE,COYOACAN,CON BOTON,CON ALTAVOZ,9m,WIFI GRATUITO_ACTIVO,19.328037,-99.131151,"19.328037,-99.131151"
128,C. HEROES,ENTRE C. VIOLETA Y C. MINA (C. SAN FERNANDO),GUERRERO,CUAUHTEMOC,CON BOTON,CON ALTAVOZ,9m,WIFI GRATUITO_ACTIVO,19.439922,-99.147013,"19.439922,-99.147013"
129,C. HEROES,AV. MOSQUETA (EJE 1 NTE.),GUERRERO,CUAUHTEMOC,CON BOTON,CON ALTAVOZ,9m,WIFI GRATUITO_ACTIVO,19.444939,-99.145911,"19.444939,-99.145911"
130,C. RAMON LOPEZ VELARDE,ENTRE C. STA. MA. LA RIBERA Y C. JAIME TORRES BODET,SANTA MARIA LA RIBERA,CUAUHTEMOC,CON BOTON,CON ALTAVOZ,9m,WIFI GRATUITO_ACTIVO,19.444159,-99.157932,"19.444159,-99.157932"
131,C. DEL CARMEN,C. REP. DE COLOMBIA,CENTRO,CUAUHTEMOC,CON BOTON,CON ALTAVOZ,9m,WIFI GRATUITO_ACTIVO,19.438103,-99.129298,"19.438103,-99.129298"
132,C. MESONES,2DO. CJON. DE MESONES,CENTRO,CUAUHTEMOC,CON BOTON,CON ALTAVOZ,9m,WIFI GRATUITO_ACTIVO,19.428019,-99.131158,"19.428019,-99.131158"
133,SUR 77,AV. MORELOS (EJE 3 SUR) Y CALZ. DE LA VIGA,AMPL. ASTURIAS,CUAUHTEMOC,CON BOTON,CON ALTAVOZ,9m,WIFI GRATUITO_ACTIVO,19.408827,-99.127567,"19.408827,-99.127567"
134,EJE 1 OTE. LA VIGA,AV. LORENZO BOTURINI,LORENZO BOTURINI,VENUSTIANO CARRANZA,CON BOTON,CON ALTAVOZ,9m,WIFI GRATUITO_ACTIVO,19.417469,-99.127504,"19.417469,-99.127504"
135,C. 5 DE FEBRERO,C. ALVA IXTLIXOCHITL,OBRERA,CUAUHTEMOC,CON BOTON,CON ALTAVOZ,9m,WIFI GRATUITO_ACTIVO,19.419643,-99.136054,"19.419643,-99.136054"
136,C. BOLIVAR,ENTRE C. CHIMALPOPOCA Y AV. FRAY SERVANDO TERESA DE MIER,CENTRO,CUAUHTEMOC,CON BOTON,CON ALTAVOZ,9m,REPORTE DE FALLA,19.422584,-99.139899,"19.422584,-99.139899"
137,C. JOSE A. TORRES,EJE 2 SUR AV. DEL TALLER,PAULINO NAVARRO,CUAUHTEMOC,CON BOTON,CON ALTAVOZ,9m,WIFI GRATUITO_ACTIVO,19.413162,-99.132737,"19.413162,-99.132737"
138,C. DR. F. GOMEZ SANTOS,PRIV. DR. MARQUEZ,DOCTORES,CUAUHTEMOC,CON BOTON,CON ALTAVOZ,9m,WIFI GRATUITO_ACTIVO,19.408062,-99.150614,"19.408062,-99.150614"
139,EJE 2 SUR DR. OLVERA,C. DR. BARRAGAN,DOCTORES,CUAUHTEMOC,CON BOTON,CON ALTAVOZ,9m,WIFI GRATUITO_ACTIVO,19.415339,-99.144929,"19.415339,-99.144929"
140,AV. JUAREZ (SIN NOMBRE),C. 5 DE MAYO,PUEBLO SAN BARTOLOME XICOMULCO,MILPA ALTA,CON BOTON,CON ALTAVOZ,9m,WIFI GRATUITO_ACTIVO,19.206778,-99.070894,"19.206778,-99.070894"
141,AV. CONSTITUCION,AV. MEXICO NORTE,PUEBLO VILLA MILPA ALTA,MILPA ALTA,CON BOTON,CON ALTAVOZ,9m,WIFI GRATUITO_ACTIVO,19.191043,-99.023824,"19.191043,-99.023824"
142,C. QUETZALCOATL,ENTRE C. VENUSTIANO CARRANZA Y C. JUSTO SIERRA,BARRIO PANCHIMALCO,MILPA ALTA,CON BOTON,CON ALTAVOZ,9m,WIFI GRATUITO_ACTIVO,19.201323,-99.048653,"19.201323,-99.048653"
143,AV. FABIAN FLORES,C. EMILIANO ZAPATA,PUEBLO SAN PABLO OZTOTEPEC,MILPA ALTA,CON BOTON,CON ALTAVOZ,9m,WIFI GRATUITO_ACTIVO,19.186474,-99.073849,"19.186474,-99.073849"
144,AV. MORELOS PTE.,ENTRE C. TEPEQUENTECH Y C. OTRIQUISCO,PUEBLO SAN SALVADOR CUAUHTENCO,MILPA ALTA,CON BOTON,CON ALTAVOZ,9m,WIFI GRATUITO_ACTIVO,19.194481,-99.095452,"19.194481,-99.095452"
145,AV. PUEBLA PTE.,AV. SINALOA NORTE,BARRIO SANTA MARTHA,MILPA ALTA,CON BOTON,CON ALTAVOZ,9m,WIFI GRATUITO_ACTIVO,19.194966,-99.026785,"19.194966,-99.026785"
146,AV. 414,AV. JOSE LORETO FABELA,PUEBLO SAN JUAN DE ARAGON,GUSTAVO A. MADERO,SIN BOTON,SIN ALTAVOZ,9m,REPORTE DE FALLA,19.470659,-99.079631,"19.470659,-99.079631"
147,AV. LÁZARO CÁRDENAS,1RA. CDA. LÁZARO CÁRDENAS,CUAUTEPEC DE MADERO BARRIO BAJO,GUSTAVO A. MADERO,CON BOTON,CON ALTAVOZ,9m,REPORTE DE FALLA,19.541936,-99.141415,"19.541936,-99.141415"
148,AV. 608,AV. 412 ( EJE 5 NORTE ),SAN JUAN DE ARAGON 4a SECCION,GUSTAVO A. MADERO,CON BOTON,CON ALTAVOZ,9m,REPORTE DE FALLA,19.461218,-99.063512,"19.461218,-99.063512"
149,AV. DE LA ESCOLLERA,BUOLEVARD  DEL TEMOLUCO,ACUEDUCTO DE GUADALUPE,GUSTAVO A. MADERO,CON BOTON,CON ALTAVOZ,9m,WIFI GRATUITO_ACTIVO,19.525019,-99.148762,"19.525019,-99.148762"
150,QUERETARO,MICHOACAN,CHALMA DE GUADALUPE,GUSTAVO A. MADERO,CON BOTON,CON ALTAVOZ,9m,WIFI GRATUITO_ACTIVO,19.54935,-99.152197,"19.54935,-99.152197"
151,C. AGUASCALIENTES,C. OAXACA,CHALMA DE GUADALUPE,GUSTAVO A. MADERO,CON BOTON,CON ALTAVOZ,9m,REPORTE DE FALLA,19.551754,-99.152238,"19.551754,-99.152238"
152,ARTURO CASTRO,VIRGINIA FABREGAS,JORGE NEGRETE,GUSTAVO A. MADERO,CON BOTON,CON ALTAVOZ,9m,REPORTE DE FALLA,19.529617,-99.144462,"19.529617,-99.144462"
153,C. BRAULIO GUERRERO,CALZ. EMILIANO ZAPATA,GUADALUPE VICTORIA,GUSTAVO A. MADERO,CON BOTON,CON ALTAVOZ,9m,REPORTE DE FALLA,19.540264,-99.140328,"19.540264,-99.140328"
154,AV. 508,ENTRE AV. 547   y  AV. 549,U.H.SAN JUAN DE AGRAGON 2da.SECC.,GUSTAVO A. MADERO,CON BOTON,CON ALTAVOZ,9m,REPORTE DE FALLA,19.459208,-99.084223,"19.459208,-99.084223"
155,C. CATAMARCA,C. SALAVERRY,RESIDENCIAL ZACATENCO,GUSTAVO A. MADERO,CON BOTON,CON ALTAVOZ,9m,WIFI GRATUITO_ACTIVO,19.503605,-99.126371,"19.503605,-99.126371"
156,C. SAUL,C. MARTHA,GUADALUPE TEPEYAC,GUSTAVO A. MADERO,CON BOTON,CON ALTAVOZ,9m,WIFI GRATUITO_ACTIVO,19.468763,-99.118772,"19.468763,-99.118772"
157,CALZ. PROL. MISTERIOS,AV. INSURGENTES,SANTA ISABEL TOLA,GUSTAVO A. MADERO,SIN BOTON,CON ALTAVOZ,9m,WIFI GRATUITO_ACTIVO,19.491149,-99.119667,"19.491149,-99.119667"
158,AV. 529,5ta. CDA. AV. 525,U. H. SAN JUAN DE ARAGÓN 1ra.SECCIÓN,GUSTAVO A. MADERO,CON BOTON,CON ALTAVOZ,9m,WIFI GRATUITO_ACTIVO,19.458297,-99.0898,"19.458297,-99.0898"
159,C. 633,2da. CDA. DE C. 633,SAN JUAN DE ARAGON 4a. Y 5a. SECCION,GUSTAVO A. MADERO,CON BOTON,CON ALTAVOZ,9m,REPORTE DE FALLA,19.457111,-99.065658,"19.457111,-99.065658"
160,EJE 2 ORIENTE CALZ. LA VIGA (CALZ. DE LA VIGA),EJE 5 SUR SANTA MARIA LA PURISIMA (PURISIMA EJE 5 SUR),EL TRIUNFO,IZTAPALAPA,CON BOTON,CON ALTAVOZ,9m,WIFI GRATUITO_ACTIVO,19.38004,-99.122578,"19.38004,-99.122578"
161,C. AMACUZAC,C. JESUS URUETA,BARRIO SAN PEDRO,IZTACALCO,SIN BOTON,CON ALTAVOZ,9m,WIFI GRATUITO_ACTIVO,19.393266,-99.126835,"19.393266,-99.126835"
162,C. CORUÑA,C. SUR 69,VIADUCTO PIEDAD,IZTACALCO,CON BOTON,CON ALTAVOZ,9m,WIFI GRATUITO_ACTIVO,19.401154,-99.130056,"19.401154,-99.130056"
163,EJE 1 OTE. ANDRES MOLINA ENRIQUEZ,ENTRE CALZ. SANTA ANITA Y C. CORUÑA,VIADUCTO PIEDAD,IZTACALCO,CON BOTON,CON ALTAVOZ,9m,WIFI GRATUITO_ACTIVO,19.399666,-99.129145,"19.399666,-99.129145"
164,C. VALENTIN GOMEZ FARIAS,AND. SANTOS DEGOLLADO,CAMP. 2 DE OCTUBRE,IZTACALCO,CON BOTON,CON ALTAVOZ,9m,WIFI GRATUITO_ACTIVO,19.382935,-99.113544,"19.382935,-99.113544"
165,C. GUILLERMO PRIETO,C. SANTOS DEGOLLADO,CAMP. 2 DE OCTUBRE,IZTACALCO,CON BOTON,CON ALTAVOZ,9m,WIFI GRATUITO_ACTIVO,19.383789,-99.113341,"19.383789,-99.113341"
166,C. FCO. I. MADERO,C. SAN MATIAS,BARRIO SAN MIGUEL,IZTACALCO,CON BOTON,CON ALTAVOZ,9m,WIFI GRATUITO_ACTIVO,19.391655,-99.119887,"19.391655,-99.119887"
167,AND. ALFREDO CHAVERO,AV. CANAL DE APATLACO,CAMP. 2 DE OCTUBRE,IZTACALCO,CON BOTON,CON ALTAVOZ,9m,WIFI GRATUITO_ACTIVO,19.382311,-99.118851,"19.382311,-99.118851"
168,C. VAINILLA,C. CENTENO,GRANJAS MEXICO,IZTACALCO,CON BOTON,CON ALTAVOZ,9m,WIFI GRATUITO_ACTIVO,19.399256,-99.096865,"19.399256,-99.096865"
169,C. GOMA,C. CENTENO,GRANJAS MEXICO,IZTACALCO,CON BOTON,CON ALTAVOZ,9m,WIFI GRATUITO_ACTIVO,19.400375,-99.102688,"19.400375,-99.102688"
170,CTO. INTERIOR RIO CHURUBUSCO,C. CARLOS JUAN FINLAY,INPI PICOS,IZTACALCO,CON BOTON,CON ALTAVOZ,9m,WIFI GRATUITO_ACTIVO,19.387801,-99.100721,"19.387801,-99.100721"
171,RET 1  ROBERTO KOCH,RET 2 ROBERTO KOCH,INIPI PICOS,IZTACALCO,CON BOTON,CON ALTAVOZ,9m,WIFI GRATUITO_ACTIVO,19.387376,-99.101978,"19.387376,-99.101978"
172,AV. 5,ESQ.: ORIENTE 110,GABRIEL RAMOS MILLAN,IZTACALCO,CON BOTON,CON ALTAVOZ,9m,WIFI GRATUITO_ACTIVO,19.391397,-99.103551,"19.391397,-99.103551"
173,CALLE 1,AVENIDA UNION,AGRICOLA PANTITLAN,IZTACALCO,CON BOTON,CON ALTAVOZ,9m,WIFI GRATUITO_ACTIVO,19.417461,-99.068291,"19.417461,-99.068291"
174,C. SAN ANDRES TETEPILCO,EJE 1 OTE. AV. A. MOLINA ENRIQUEZ,SAN ANDRES TETEPILCO,IZTAPALAPA,CON BOTON,CON ALTAVOZ,9m,WIFI GRATUITO_ACTIVO,19.369576,-99.130016,"19.369576,-99.130016"
175,AV. AGUSTIN YAÑES,C. SUR 103-A,SECTOR POPULAR,IZTAPALAPA,CON BOTON,CON ALTAVOZ,9m,WIFI GRATUITO_ACTIVO,19.365796,-99.118472,"19.365796,-99.118472"
176,AV. JORGE ENCISO,C. SUR 107-A,HEROES DE CHURUBUSCO,IZTAPALAPA,CON BOTON,CON ALTAVOZ,9m,WIFI GRATUITO_ACTIVO,19.359562,-99.118067,"19.359562,-99.118067"
177,C. BENITO JUAREZ,C. FRANCISCO I: MADERO,PUEBLO LOS REYES CULHUACAN,IZTAPALAPA,CON BOTON,CON ALTAVOZ,9m,WIFI GRATUITO_ACTIVO,19.345255,-99.109264,"19.345255,-99.109264"
178,C. TOPOGRAFOS,C. INGENIEROS PETROLEROS,NUEVA ROSITA,IZTAPALAPA,CON BOTON,CON ALTAVOZ,9m,WIFI GRATUITO_ACTIVO,19.376096,-99.104556,"19.376096,-99.104556"
179,AV. AÑO DE JUAREZ,ENTRE CALLE 2 Y EJE 8 SUR CALZ. ERMITA IZTAPALAPA,GRANJAS SAN ANTONIO,IZTAPALAPA,CON BOTON,CON ALTAVOZ,9m,WIFI GRATUITO_ACTIVO,19.35646,-99.109311,"19.35646,-99.109311"
180,C. ESCOBILLERA,C. EMBARCADERO,LOS PASEOS DE CHURUBUSCO,IZTAPALAPA,SIN BOTON,SIN ALTAVOZ,9m,WIFI GRATUITO_ACTIVO,19.380956,-99.07983,"19.380956,-99.07983"
181,C. IGNACIO COMONFORT,C. ITURBIDE,BARRIO SAN LUCAS,IZTAPALAPA,CON BOTON,CON ALTAVOZ,9m,WIFI GRATUITO_ACTIVO,19.359558,-99.096967,"19.359558,-99.096967"
182,CTO. RIO COLORADO,CTO. RIO CARMEN,C. H. REAL DEL MORAL,IZTAPALAPA,CON BOTON,CON ALTAVOZ,9m,WIFI GRATUITO_ACTIVO,19.390806,-99.082631,"19.390806,-99.082631"
183,C. M. GONZÁLEZ,C. IGNACIO COMONFORT,BARRIO SAN LUCAS,IZTAPALAPA,CON BOTON,CON ALTAVOZ,9m,WIFI GRATUITO_ACTIVO,19.35893,-99.094536,"19.35893,-99.094536"
184,AV. JALISCO,C. FERNANDO MONTES DE OCA,GUADALUPE DEL MORAL,IZTAPALAPA,CON BOTON,CON ALTAVOZ,9m,WIFI GRATUITO_ACTIVO,19.369851,-99.076354,"19.369851,-99.076354"
185,C. QUETZAL,ENTRE C. GREGORIO TORRES QUINTERO Y HIDALGO MONROY,BARRIO SAN MIGUEL,IZTAPALAPA,CON BOTON,CON ALTAVOZ,9m,WIFI GRATUITO_ACTIVO,19.355734,-99.074353,"19.355734,-99.074353"
186,AV. RIO SOTO LA MARINA,CTO. RIO MIXTECO,CONJUNTO HAB. REAL DEL MORAL,IZTAPALAPA,CON BOTON,CON ALTAVOZ,9m,WIFI GRATUITO_ACTIVO,19.385334,-99.081267,"19.385334,-99.081267"
187,C. HOMBRES ILUSTRES,CALZ. ERMITA IZTAPALAPA,BARRIO SAN LUCAS,IZTAPALAPA,CON BOTON,CON ALTAVOZ,9m,WIFI GRATUITO_ACTIVO,19.357638,-99.094332,"19.357638,-99.094332"
188,C. RIO STA. MARIA,AVENIDA EJE 4 SUR SAN RAFAEL ATLIXCO,C.H. REAL DEL MORAL,IZTAPALAPA,CON BOTON,CON ALTAVOZ,9m,WIFI GRATUITO_ACTIVO,19.389387,-99.083566,"19.389387,-99.083566"
189,AV. UNIDAD MODELO,PROLONGACION EMILIANO ZAPATA,UNIDAD MODELO,IZTAPALAPA,CON BOTON,CON ALTAVOZ,9m,WIFI GRATUITO_ACTIVO,19.362095,-99.125709,"19.362095,-99.125709"
190,RET. 206 DE AV. R. CHURUBUSCO,CIRCUITO INTERIOR AV. RIO CHURUBUSCO,UNIDAD MODELO,IZTAPALAPA,SIN BOTON,CON ALTAVOZ,9m,REPORTE DE FALLA,19.363774,-99.127693,"19.363774,-99.127693"
191,C. ABRAHAM GONZALEZ,AV. MEXICO,SANTA MARIA AZTAHUACAN,IZTAPALAPA,CON BOTON,CON ALTAVOZ,9m,WIFI GRATUITO_ACTIVO,19.357857,-99.02203,"19.357857,-99.02203"
192,PROL. TELECOMUNICACIONES,AVENIDA TELECOMUNICACIONES,UNID. HAB. GUELATAO DE JUAREZ,IZTACALCO,CON BOTON,CON ALTAVOZ,9m,WIFI GRATUITO_ACTIVO,19.385369,-99.048515,"19.385369,-99.048515"
193,AV. CENTRAL (MERCADO V. CARRANZA),ENTRE C. CONSTITUCIÓN DE APATZINGAN Y AV. UNIVERSIDAD,U. H. EJERCITO CONSTITUCIONALISTA,IZTAPALAPA,CON BOTON,CON ALTAVOZ,9m,WIFI GRATUITO_ACTIVO,19.386379,-99.056802,"19.386379,-99.056802"
194,AV. GUELATAO,CDA. DEL ISSSTE,U. H. IGNACIO ZARAGOZA,IZTAPALAPA,CON BOTON,CON ALTAVOZ,9m,WIFI GRATUITO_ACTIVO,19.384749,-99.037939,"19.384749,-99.037939"
195,GENERAL JUAN ENRIQUE,ESQ. JUAN M. GUTIERREZ,JUAN ESCUTIA,IZTAPALAPA,CON BOTON,CON ALTAVOZ,9m,WIFI GRATUITO_ACTIVO,19.395441,-99.048782,"19.395441,-99.048782"
196,GENERAL VICENTE MARISCAL,ESQ. LINO MERINO,JUAN ESCUTIA,IZTAPALAPA,CON BOTON,CON ALTAVOZ,9m,WIFI GRATUITO_ACTIVO,19.394309,-99.047897,"19.394309,-99.047897"
197,RIÓ ECATEPEC,C. PONCE DE LEÓN (C. JOSÉ MA. MOCTEZUMA),POPULAR ERMITA ZARAGOZA,IZTAPALAPA,CON BOTON,CON ALTAVOZ,9m,WIFI GRATUITO_ACTIVO,19.364749,-99.002427,"19.364749,-99.002427"
198,C. SALVADOR CARRANCO,C. J. M. GUTIÉRREZ,U. H. LA COLMENA,IZTAPALAPA,CON BOTON,CON ALTAVOZ,9m,WIFI GRATUITO_ACTIVO,19.371437,-98.999724,"19.371437,-98.999724"
199,C. FILOMENO MATA,C. MIGUEL HIDALGO,Z.U.STA. MARIA AZTAHUACAN,IZTAPALAPA,SIN BOTON,CON ALTAVOZ,9m,WIFI GRATUITO_ACTIVO,19.353132,-99.03745,"19.353132,-99.03745"
200,AV. EXPLORADORES EJERCITO DE ORIENTE,C. GUADALUPE LOPEZ,EJERCITO DE ORIENTE SECC. III,IZTAPALAPA,CON BOTON,CON ALTAVOZ,9m,WIFI GRATUITO_ACTIVO,19.365996,-99.024932,"19.365996,-99.024932"
201,1er. RETORNO BATALLON CHIAUTLA,C. FUERTE DE LORETO,EJERCITO DE ORIENTE SECC. IV,IZTAPALAPA,CON BOTON,CON ALTAVOZ,9m,WIFI GRATUITO_ACTIVO,19.36647,-99.029536,"19.36647,-99.029536"
202,C. ORIENTE 166,C. SUR 69,JUSTO SIERRA,IZTAPALAPA,SIN BOTON,CON ALTAVOZ,9m,REPORTE DE FALLA,19.365209,-99.136664,"19.365209,-99.136664"
203,C. FRANCISCO I. MADERO,C. PORFIRIO DIAZ,PUEBLO STA. MARTHA ACATITLA,IZTAPALAPA,CON BOTON,CON ALTAVOZ,9m,WIFI GRATUITO_ACTIVO,19.362162,-99.010146,"19.362162,-99.010146"
204,C. SUR 73,C. ORIENTE 172,JUSTO SIERRA,IZTAPALAPA,CON BOTON,CON ALTAVOZ,9m,WIFI GRATUITO_ACTIVO,19.36308,-99.134004,"19.36308,-99.134004"
205,AV. EMILIANO ZAPATA,ENTRE C. TRANSFIGURACION Y C. IZTACIHUATL,BARRIO SAN ANTONIO,IZTAPALAPA,CON BOTON,CON ALTAVOZ,9m,WIFI GRATUITO_ACTIVO,19.302747,-99.073012,"19.302747,-99.073012"
206,AV. 1,C. VISTA HERMOSA,LOMAS DE SAN LORENZO,IZTAPALAPA,CON BOTON,CON ALTAVOZ,9m,WIFI GRATUITO_ACTIVO,19.318814,-99.064596,"19.318814,-99.064596"
207,C. RIO ATOYAC,AV. JOSE LOPEZ PORTILLO (AV. 3),LOMAS DE SAN LORENZO,IZTAPALAPA,CON BOTON,CON ALTAVOZ,9m,WIFI GRATUITO_ACTIVO,19.320764,-99.058956,"19.320764,-99.058956"
208,ACCION SOCIAL,ENTRE CONDIMINIO 5 Y CONDOMINIO 6,U. H. GIRASOLES,IZTAPALAPA,CON BOTON,CON ALTAVOZ,9m,WIFI GRATUITO_ACTIVO,19.314545,-99.074007,"19.314545,-99.074007"
209,AV. ZACATLAN,AV. TLAHUAC,SAN LORENZO TEZONCO,IZTAPALAPA,CON BOTON,CON ALTAVOZ,9m,WIFI GRATUITO_ACTIVO,19.306947,-99.066672,"19.306947,-99.066672"
210,AV. CUAUHTEMOC,JARDIN DALIAS,JARDINES DE SAN LORENZO TEZONCO,IZTAPALAPA,CON BOTON,CON ALTAVOZ,9m,WIFI GRATUITO_ACTIVO,19.295928,-99.071207,"19.295928,-99.071207"
211,C. TEZOZOMOC,C. CUAUHTEMOC,PANTEON CIVIL DE IZTAPALAPA,IZTAPALAPA,SIN BOTON,CON ALTAVOZ,9m,WIFI GRATUITO_ACTIVO,19.344346,-99.099492,"19.344346,-99.099492"
212,C. UNION DE COLONOS,C. ALTAMIRANO,SAN MIGUEL TEOTONGO SECC. LAS TORRES,IZTAPALAPA,CON BOTON,CON ALTAVOZ,9m,REPORTE DE FALLA,19.348486,-98.989933,"19.348486,-98.989933"
213,C. CUICACALLI,C. XOCHIQUETZAL,AMPL. FLORES MAGON,IZTAPALAPA,CON BOTON,CON ALTAVOZ,9m,WIFI GRATUITO_ACTIVO,19.348442,-99.100238,"19.348442,-99.100238"
214,C. BANDERA,ENTRE C. MIGUEL DE LA MADRID Y C. 15 DE SEPTIEMBRE,LOMAS DE ZARAGOZA,IZTAPALAPA,CON BOTON,CON ALTAVOZ,9m,WIFI GRATUITO_ACTIVO,19.34987,-98.997043,"19.34987,-98.997043"
215,C. CUAUHTEMOC,C. JACARANDAS,PUEBLO SANTIAGO ACAHUALTEPEC,IZTAPALAPA,CON BOTON,CON ALTAVOZ,9m,WIFI GRATUITO_ACTIVO,19.351072,-99.004067,"19.351072,-99.004067"
216,AV. ESCUINAPA,C. ANACAHIITA,PEDREGAL DE STO. DOMINGO,COYOACAN,CON BOTON,CON ALTAVOZ,9m,WIFI GRATUITO_ACTIVO,19.332279,-99.170712,"19.332279,-99.170712"
217,C. FRANCISCO VILLA,C. MONTE BELLO (C. 16 DE SEPTIEMBRE),IXTLAHUACAN (MIGUEL DE LA MADRID HURTADO,IZTAPALAPA,CON BOTON,CON ALTAVOZ,9m,REPORTE DE FALLA,19.342283,-98.999079,"19.342283,-98.999079"
218,C. PERSEVERANCIA,CDA. PINOS,CITLALI,IZTAPALAPA,CON BOTON,CON ALTAVOZ,9m,WIFI GRATUITO_ACTIVO,19.342459,-99.023384,"19.342459,-99.023384"
219,2DA. CDA. DE MARGARITAS,CERRADA ALTAMIRANO,PALMITAS,IZTAPALAPA,CON BOTON,CON ALTAVOZ,9m,WIFI GRATUITO_ACTIVO,19.333991,-99.023408,"19.333991,-99.023408"
220,C. MANUEL LIRA Y ORTEGA,C. CORONEL LINO MERINO,JUAN ESCUTIA,IZTAPALAPA,CON BOTON,CON ALTAVOZ,9m,WIFI GRATUITO_ACTIVO,19.386764,-99.034595,"19.386764,-99.034595"
221,CDA. PALMITAS,C. RUBEN JARAMILLO,SAN MIGUEL TEOTONGO SECC. PALMAS,IZTAPALAPA,CON BOTON,CON ALTAVOZ,9m,WIFI GRATUITO_ACTIVO,19.340389,-98.993249,"19.340389,-98.993249"
222,C. PERIMETRAL,C. DE LA JARANA,SAN JERONIMO LIDICE,MAGDALENA CONTRERAS,CON BOTON,CON ALTAVOZ,9m,WIFI GRATUITO_ACTIVO,19.331597,-99.212286,"19.331597,-99.212286"
223,AV. SAN JERONIMO,C. LOMAS QUEBRADAS,SAN JERONIMO LIDICE,MAGDALENA CONTRERAS,SIN BOTON,CON ALTAVOZ,9m,WIFI GRATUITO_ACTIVO,19.318354,-99.235119,"19.318354,-99.235119"
224,AV. LUIS CABRERA,PRIV. PRESA REVENTADA,LA MALINCHE,MAGDALENA CONTRERAS,CON BOTON,SIN ALTAVOZ,9m,WIFI GRATUITO_ACTIVO,19.319443,-99.239328,"19.319443,-99.239328"
225,C. POTRERILLO,C. LA PERAZ,POTRERILLO,MAGDALENA CONTRERAS,CON BOTON,CON ALTAVOZ,9m,REPORTE DE FALLA,19.306891,-99.252855,"19.306891,-99.252855"
226,C. BUENAVISTA,C. EMILIANO ZAPATA,VISTAHERMOSA,MAGDALENA CONTRERAS,CON BOTON,CON ALTAVOZ,9m,WIFI GRATUITO_ACTIVO,19.313569,-99.256476,"19.313569,-99.256476"
227,AV. OAXACA,C. SONORA,HEROES DE PADIERNA,MAGDALENA CONTRERAS,CON BOTON,CON ALTAVOZ,9m,WIFI GRATUITO_ACTIVO,19.315138,-99.226659,"19.315138,-99.226659"
228,C. EMILIO CARRANZA,C. LA MAGDALENA Y BENITO JUAREZ,PUEBLO DE LA MAGDALENA CONTRERAS,MAGDALENA CONTRERAS,CON BOTON,CON ALTAVOZ,9m,WIFI GRATUITO_ACTIVO,19.302673,-99.245641,"19.302673,-99.245641"
229,C. MAR BAFFIN,CALZ. MEXICO-TACUBA,TACUBA,MIGUEL HIDALGO,CON BOTON,CON ALTAVOZ,9m,REPORTE DE FALLA,19.458616,-99.183936,"19.458616,-99.183936"
230,C. LAGO WINNIPEG,C. LAGO ONTARIO,TACUBA,MIGUEL HIDALGO,CON BOTON,CON ALTAVOZ,9m,WIFI GRATUITO_ACTIVO,19.454724,-99.192214,"19.454724,-99.192214"
231,AV. MARINA NACIONAL,ENTRE C. GOLFO DE VIZCAYA Y C. FELIPE CARRILLO PUERTO,TACUBA,MIGUEL HIDALGO,SIN BOTON,CON ALTAVOZ,9m,WIFI GRATUITO_ACTIVO,19.453277,-99.186455,"19.453277,-99.186455"
232,C. NUEVO LEON,C. VIOLETA,SANTA CRUCITA,XOCHIMILCO,CON BOTON,CON ALTAVOZ,9m,WIFI GRATUITO_ACTIVO,19.262018,-99.101172,"19.262018,-99.101172"
233,C. LAGO ONTARIO,GOLFO SAN LORENZO,TACUBA,MIGUEL HIDALGO,CON BOTON,CON ALTAVOZ,9m,WIFI GRATUITO_ACTIVO,19.454496,-99.191555,"19.454496,-99.191555"
234,MAR BANDA,MAR MARMARA,POPOTLA,MIGUEL HIDALGO,CON BOTON,CON ALTAVOZ,9m,WIFI GRATUITO_ACTIVO,19.457063,-99.175839,"19.457063,-99.175839"
235,C. MAESTRO RURAL,C. JOSE PARRES,UN HOGAR PARA NOSOTROS,MIGUEL HIDALGO,CON BOTON,CON ALTAVOZ,9m,WIFI GRATUITO_ACTIVO,19.449933,-99.170686,"19.449933,-99.170686"
236,C. BAHIA DE SANTA BARBARA,C. BAHIA DE SAN CRISTOBAL,VERONICA ANZURES,MIGUEL HIDALGO,CON BOTON,CON ALTAVOZ,9m,REPORTE DE FALLA,19.436935,-99.175697,"19.436935,-99.175697"
237,C. NORTE 4,C. PONIENTE119,POPO,MIGUEL HIDALGO,CON BOTON,CON ALTAVOZ,9m,WIFI GRATUITO_ACTIVO,19.445662,-99.199846,"19.445662,-99.199846"
238,C. PRESA RODRIGUEZ,C. PRESA SALINILLA,LOMA HERMOSA,MIGUEL HIDALGO,CON BOTON,CON ALTAVOZ,9m,WIFI GRATUITO_ACTIVO,19.446001,-99.212289,"19.446001,-99.212289"
239,AV. CONSTITUYENTES,F RAMIREZ,BOSQUE DECHAPULTEPEC 1a SECC.,MIGUEL HIDALGO,CON BOTON,CON ALTAVOZ,9m,WIFI GRATUITO_ACTIVO,19.411904,-99.192332,"19.411904,-99.192332"
240,AV. TRANSITO,C. JOSE MARIA VIGIL,TACUBAYA,MIGUEL HIDALGO,CON BOTON,CON ALTAVOZ,9m,WIFI GRATUITO_ACTIVO,19.401346,-99.186547,"19.401346,-99.186547"
241,C. GOB. PROTACIO TAGLE,C. ALUMNOS,SAN MIGUEL CHAPULTEPEC,MIGUEL HIDALGO,CON BOTON,CON ALTAVOZ,9m,WIFI GRATUITO_ACTIVO,19.415091,-99.182664,"19.415091,-99.182664"
242,AV. PROGRESO,ENTRE C. CARLOS B. ZETINA,ESCANDON,MIGUEL HIDALGO,CON BOTON,CON ALTAVOZ,9m,WIFI GRATUITO_ACTIVO,19.405043,-99.183102,"19.405043,-99.183102"
243,EJE 1 OTE. CALZ. DE LA VIGA,C. J. MA. AGREDA Y SANCHEZ,TRANSITO,CUAUHTEMOC,CON BOTON,CON ALTAVOZ,9m,WIFI GRATUITO_ACTIVO,19.415612,-99.12802,"19.415612,-99.12802"
244,AV. INSURGENTE SUR,EJE 3 SUR BAJA CALIFORNIA,ROMA SUR,CUAUHTEMOC,CON BOTON,CON ALTAVOZ,9m,WIFI GRATUITO_ACTIVO,19.405767,-99.16847,"19.405767,-99.16847"
245,C. GABINO BARREDA (C. MANUEL ALTAMIRANO),C. FRANCISCO I. MADERO,PUEBLO SAN PEDRO ATOCPAN,MILPA ALTA,CON BOTON,CON ALTAVOZ,9m,REPORTE DE FALLA,19.201313,-99.050131,"19.201313,-99.050131"
246,C. RIO MAYO,C. PLAZA CANTARITOS,DR. ALFONSO ORTIZ TIRADO,IZTAPALAPA,CON BOTON,CON ALTAVOZ,9m,WIFI GRATUITO_ACTIVO,19.387554,-99.079819,"19.387554,-99.079819"
247,BLVR. NUEVO LEON PTE.,ENTRE AV. MEXICO NTE. Y C. SONORA OTE.,BARRIO AMPL. SANTA CRUZ,MILPA ALTA,CON BOTON,CON ALTAVOZ,9m,WIFI GRATUITO_ACTIVO,19.196663,-99.023393,"19.196663,-99.023393"
248,C. ZARAGOZA,ENTRE C. CRUZTIPAC Y AV. JOSE MARIA MORELOS,PUEBLO SAN ANTONIO TECOMITL,MILPA ALTA,CON BOTON,CON ALTAVOZ,9m,WIFI GRATUITO_ACTIVO,19.218705,-98.995455,"19.218705,-98.995455"
249,CJON. VICENTE GUERRERO,C. XACALIPA,PUEBLO SAN FRANCISCO TECOXPA,MILPA ALTA,CON BOTON,CON ALTAVOZ,9m,WIFI GRATUITO_ACTIVO,19.194401,-99.002106,"19.194401,-99.002106"
250,AV. MARIANO MATAMOROS (SIN NOMBRE),C. NIÑOS HEROES (AV. TABASCO PTE.),PUEBLO SAN AGUSTIN OHTENCO,MILPA ALTA,CON BOTON,CON ALTAVOZ,9m,WIFI GRATUITO_ACTIVO,19.193014,-99.012215,"19.193014,-99.012215"
251,AVENIDA ATZAYACATL NTE,CAMINO A SAN BARTOLOME XICOMULCO,PUEBLO SN. PEDRO ATOCPAN,MILPA ALTA,SIN BOTON,CON ALTAVOZ,9m,WIFI GRATUITO_ACTIVO,19.205199,-99.050619,"19.205199,-99.050619"
252,C. RAMON CORDOBA,C. RIACHUELO SERPENTINO,STA. CECILIA TLAHUAC,TLAHUAC,SIN BOTON,CON ALTAVOZ,9m,WIFI GRATUITO_ACTIVO,19.281307,-99.005536,"19.281307,-99.005536"
253,C. CECILIO ACOSTA,AV. SALVADOR DÍAZ MIRÓN,ZAPOTITLA,TLAHUAC,CON BOTON,CON ALTAVOZ,9m,REPORTE DE FALLA,19.312557,-99.03842,"19.312557,-99.03842"
254,C. CARLOS VIDAL,C. ANDRES QUINTANA ROO,GUADALUPE TLALTENCO,TLAHUAC,CON BOTON,CON ALTAVOZ,9m,WIFI GRATUITO_ACTIVO,19.295533,-99.014125,"19.295533,-99.014125"
255,C. EMILIO LAURENT,C. IGNACIO MOLINA,"LA CONCHITA ""B""",TLAHUAC,CON BOTON,CON ALTAVOZ,9m,WIFI GRATUITO_ACTIVO,19.288591,-99.034559,"19.288591,-99.034559"
256,C. AQUILES SERDAN,C. GERANIO,BARRIO LOS REYES,TLAHUAC,CON BOTON,CON ALTAVOZ,9m,WIFI GRATUITO_ACTIVO,19.262892,-99.003228,"19.262892,-99.003228"
257,C. EDUCACION TECNOLOGICA,C. EDUCACION CIVICA,JAIME TORRES BODET,TLAHUAC,CON BOTON,CON ALTAVOZ,9m,WIFI GRATUITO_ACTIVO,19.231938,-98.998662,"19.231938,-98.998662"
258,C. TEPEKAN,C. BOCHIL,CULTURA MAYA,TLALPAN,CON BOTON,CON ALTAVOZ,9m,WIFI GRATUITO_ACTIVO,19.275849,-99.223669,"19.275849,-99.223669"
259,C. CHAPAB,C. CONTOY,CUCHILLA DE PADIERNA,TLALPAN,CON BOTON,CON ALTAVOZ,9m,WIFI GRATUITO_ACTIVO,19.27658,-99.218917,"19.27658,-99.218917"
260,C. SINANCHE,ENTRE C. MANI Y C. KANTUNIL,PEDREGAL DE SAN NICOLAS SECCION I,TLALPAN,CON BOTON,CON ALTAVOZ,9m,WIFI GRATUITO_ACTIVO,19.29193,-99.237472,"19.29193,-99.237472"
261,C. ACANCEH,C. YUCALPETEN,LOMAS DE PADIERNA,TLALPAN,CON BOTON,CON ALTAVOZ,9m,WIFI GRATUITO_ACTIVO,19.290643,-99.221761,"19.290643,-99.221761"
262,AV. CHICOASEN,ENTRE C. SINANCHE Y C. CHEMAX,PEDREGAL DE SAN NICOLAS 1A. SECC.,TLALPAN,CON BOTON,CON ALTAVOZ,9m,WIFI GRATUITO_ACTIVO,19.291905,-99.230117,"19.291905,-99.230117"
263,C. MAGUEY,C. CERRO NEGRO,CRUZ DEL FAROL,TLALPAN,CON BOTON,CON ALTAVOZ,9m,WIFI GRATUITO_ACTIVO,19.268842,-99.211526,"19.268842,-99.211526"
264,C. DURAZNO,C. TIJERA,2 DE OCTUBRE,TLALPAN,CON BOTON,CON ALTAVOZ,9m,WIFI GRATUITO_ACTIVO,19.272884,-99.23039,"19.272884,-99.23039"
265,AND. 66,CTO. AV. ACOXPA,VILLA COAPA (U. H. NARCISO MENDOZA),TLALPAN,CON BOTON,CON ALTAVOZ,9m,WIFI GRATUITO_ACTIVO,19.292613,-99.121175,"19.292613,-99.121175"
266,CALZ. DEL HUESO,AV. CAFETALES,HACIENDA DE COYOACAN,TLALPAN,CON BOTON,CON ALTAVOZ,9m,WIFI GRATUITO_ACTIVO,19.300755,-99.113441,"19.300755,-99.113441"
267,AND. SIN NOMBRE,C. ING. TAMAZULA,GRANJAS COAPA,TLALPAN,CON BOTON,CON ALTAVOZ,9m,REPORTE DE FALLA,19.297975,-99.117038,"19.297975,-99.117038"
268,C. SUR 105,C. LUCAS ALAMAN,AERONAUTICA MILITAR,VENUSTIANO CARRANZA,CON BOTON,CON ALTAVOZ,9m,WIFI GRATUITO_ACTIVO,19.418761,-99.116633,"19.418761,-99.116633"
269,C. FERROCARRIL CINTURA,C. LECUMBERRY,PENITENCIARIA,VENUSTIANO CARRANZA,CON BOTON,CON ALTAVOZ,9m,WIFI GRATUITO_ACTIVO,19.437138,-99.121099,"19.437138,-99.121099"
270,C. BRAVO,C. J. JOAQUIN HERRERA,MORELOS,VENUSTIANO CARRANZA,CON BOTON,CON ALTAVOZ,9m,WIFI GRATUITO_ACTIVO,19.438573,-99.121832,"19.438573,-99.121832"
271,AV. HEROES DE GRANADITAS,AV. DEL TRABAJO Y EJE 1 ORIENTE VIDAL,MORELOS,VENUSTIANO CARRANZA,CON BOTON,CON ALTAVOZ,9m,WIFI GRATUITO_ACTIVO,19.442579,-99.123322,"19.442579,-99.123322"
272,C. TRANSVAL,C. NORTE 174,PENSADOR MEXICANO,VENUSTIANO CARRANZA,CON BOTON,CON ALTAVOZ,9m,WIFI GRATUITO_ACTIVO,19.442553,-99.087453,"19.442553,-99.087453"
273,C. IXTACCIHUATL,ENTRE C. ORIENTE 136 Y C. ORIENTE 140,MOCTEZUMA 2a. SECC.,VENUSTIANO CARRANZA,SIN BOTON,CON ALTAVOZ,9m,WIFI GRATUITO_ACTIVO,19.431954,-99.105851,"19.431954,-99.105851"
274,C. NORTE 3,PRIV. FCO. SARABIA,SANTA CRUZ AVIACIÓN,VENUSTIANO CARRANZA,CON BOTON,CON ALTAVOZ,9m,WIFI GRATUITO_ACTIVO,19.423492,-99.097016,"19.423492,-99.097016"
275,AV. EJE 2 NORTE TRANSVAAL,C. DAMASCO,ROMERO RUBIO,VENUSTIANO CARRANZA,CON BOTON,CON ALTAVOZ,9m,WIFI GRATUITO_ACTIVO,19.44599,-99.0967,"19.44599,-99.0967"
276,C. FLORINES,C. PUERTO ARTURO,AQUILES SERDAN,VENUSTIANO CARRANZA,CON BOTON,CON ALTAVOZ,9m,WIFI GRATUITO_ACTIVO,19.447714,-99.091301,"19.447714,-99.091301"
277,C. QUETZALCOATL,C. CHIMALHUACAN,PEÑON DE LOS BAÑOS,VENUSTIANO CARRANZA,CON BOTON,CON ALTAVOZ,9m,WIFI GRATUITO_ACTIVO,19.438211,-99.085293,"19.438211,-99.085293"
278,AV. 10,C. 25,IGNACIO ZARAGOZA,VENUSTIANO CARRANZA,CON BOTON,CON ALTAVOZ,9m,WIFI GRATUITO_ACTIVO,19.413246,-99.093676,"19.413246,-99.093676"
279,C.F.C. DE CINTURA,C. PELUQUEROS,MORELOS,VENUSTIANO CARRANZA,CON BOTON,CON ALTAVOZ,9m,WIFI GRATUITO_ACTIVO,19.447162,-99.121393,"19.447162,-99.121393"
280,AV. 5 DE MAYO,CDA. 5 DE MAYO,PUEBLO SANTIAGO TEPALCATLALPAN,XOCHIMILCO,CON BOTON,CON ALTAVOZ,9m,WIFI GRATUITO_ACTIVO,19.247192,-99.126095,"19.247192,-99.126095"
281,C. 5 DE MAYO,C. MIGUEL HIDALGO,PUEBLO STA. MA. TEPEPAN,XOCHIMILCO,CON BOTON,CON ALTAVOZ,9m,WIFI GRATUITO_ACTIVO,19.273397,-99.13616,"19.273397,-99.13616"
282,AV. DEL TRABAJO,C. CUAUHTEMOC,PUEBLO SANTIAGO TEPALCATLALPAN,XOCHIMILCO,CON BOTON,CON ALTAVOZ,9m,WIFI GRATUITO_ACTIVO,19.248558,-99.123507,"19.248558,-99.123507"
283,AV. BENITO JUAREZ,AV. VICENTE GUERRERO,PUEBLO SAN ANDRES AHUAYUCAN,XOCHIMILCO,CON BOTON,CON ALTAVOZ,9m,WIFI GRATUITO_ACTIVO,19.2275,-99.107621,"19.2275,-99.107621"
284,AVE. ACUEDUCTO,ENTRE AV. ARBOLEDAS Y CEREZOS,PUERTA BOSQUE,XOCHIMILCO,CON BOTON,CON ALTAVOZ,9m,WIFI GRATUITO_ACTIVO,19.262175,-99.127462,"19.262175,-99.127462"
285,C. AHUEHUETITLA,CARRETERA XOCHIMILCO - TULYEHUALCO,RANCHO TEJOMULCO,XOCHIMILCO,CON BOTON,CON ALTAVOZ,9m,WIFI GRATUITO_ACTIVO,19.246851,-99.08365,"19.246851,-99.08365"
286,C. 16 DE SEPTIEMBRE,CALLE Y,PUEBLO STA. MA. TEPEPAN,XOCHIMILCO,SIN BOTON,CON ALTAVOZ,9m,WIFI GRATUITO_ACTIVO,19.275059,-99.132699,"19.275059,-99.132699"
287,"C, FRANCISCO PRESA",C. DIVISION DEL NORTE,SAN SEBASTIAN,XOCHIMILCO,CON BOTON,CON ALTAVOZ,9m,WIFI GRATUITO_ACTIVO,19.255003,-99.010966,"19.255003,-99.010966"
288,AVENIDA MORELOS,C. CIRCUNVALACION,BARRIO SAN PEDRO,XOCHIMILCO,CON BOTON,CON ALTAVOZ,9m,WIFI GRATUITO_ACTIVO,19.259701,-99.10522,"19.259701,-99.10522"
289,C. SAN LORENZO,C. 5 DE FEBRERO,SAN JUAN TEPEPAN,XOCHIMILCO,CON BOTON,CON ALTAVOZ,9m,WIFI GRATUITO_ACTIVO,19.273957,-99.130361,"19.273957,-99.130361"
290,AV. MIGUEL HIDALGO,ENTRE C. LAZARO CARDENAS Y AV. CUAUHTEMOC,PUEBLO SAN GREGORIO ATLAPULCO,XOCHIMILCO,CON BOTON,CON ALTAVOZ,9m,WIFI GRATUITO_ACTIVO,19.252556,-99.057408,"19.252556,-99.057408"
291,C. FRANCISCO I. MADERO,AV. MORELOS,BARRIO EL ROSARIO,XOCHIMILCO,CON BOTON,CON ALTAVOZ,9m,WIFI GRATUITO_ACTIVO,19.261839,-99.104532,"19.261839,-99.104532"
292,C. ZACATECAS,AV. GUADALUPE I. RAMIREZ,BARRIO SAN MARCOS,XOCHIMILCO,CON BOTON,CON ALTAVOZ,9m,WIFI GRATUITO_ACTIVO,19.265145,-99.111627,"19.265145,-99.111627"
293,C. BENITO JUAREZ,C. ILHUICAMINA,BARRIO LA ASUNCION,XOCHIMILCO,CON BOTON,CON ALTAVOZ,9m,FALLAS DE INFRAESTRUCTURA,19.268448,-99.103059,"19.268448,-99.103059"
294,AV. 509,5TA. CDA. AV. 507,U. H. SAN JUAN DE ARAGÓN 1ra.SECCIÓN,GUSTAVO A. MADERO,CON BOTON,CON ALTAVOZ,9m,WIFI GRATUITO_ACTIVO,19.463513,-99.09275,"19.463513,-99.09275"
295,C. 641,AND. 602 B,SAN JUAN DE ARAGON 4TA SECC.,GUSTAVO A. MADERO,CON BOTON,CON ALTAVOZ,9m,WIFI GRATUITO_ACTIVO,19.451344,-99.062977,"19.451344,-99.062977"
296,C. 1513,AV. 414,U. H. SAN JUAN DE ARAGON SECC. VI,GUSTAVO A. MADERO,CON BOTON,CON ALTAVOZ,9m,WIFI GRATUITO_ACTIVO,19.468115,-99.068539,"19.468115,-99.068539"
297,AV. JACARANDAS,AV. DIVISION DEL NORTE,CUIDAD JARDIN,COYOACAN,CON BOTON,CON ALTAVOZ,9m,WIFI GRATUITO_ACTIVO,19.333493,-99.145887,"19.333493,-99.145887"
298,C. CUAUHTEMOC,ENTRE C. MOCTEZUMA Y C. PUENTE DE PIEDRA,PUEBLO QUIETO,TLALPAN,CON BOTON,CON ALTAVOZ,9m,WIFI GRATUITO_ACTIVO,19.298456,-99.160467,"19.298456,-99.160467"
299,C. CUAUHTEMOC,C. TIZOC,AMPL. LOS REYES CULHUACAN,IZTAPALAPA,CON BOTON,CON ALTAVOZ,9m,WIFI GRATUITO_ACTIVO,19.345365,-99.102555,"19.345365,-99.102555"
300,C. GERMANIO,C. PLATINO,PARAJE SAN JUAN CERRO,IZTAPALAPA,CON BOTON,CON ALTAVOZ,9m,WIFI GRATUITO_ACTIVO,19.346394,-99.081582,"19.346394,-99.081582"
301,CALZ. ERMITA IZTAPALAPA,C. CATEDRAL DE QUERETARO,EL SANTUARIO,IZTAPALAPA,CON BOTON,CON ALTAVOZ,9m,WIFI GRATUITO_ACTIVO,19.355991,-99.092597,"19.355991,-99.092597"
302,C. CATEDRAL DE SALTILLO,ENTRE C. CIHUATL Y C. LA LOMITA,AMPL. SANTUARIO,IZTAPALAPA,CON BOTON,CON ALTAVOZ,9m,WIFI GRATUITO_ACTIVO,19.352406,-99.096219,"19.352406,-99.096219"
303,C. CARRIL,C. 3,SAN JUAN XALPA,IZTAPALAPA,CON BOTON,CON ALTAVOZ,9m,WIFI GRATUITO_ACTIVO,19.339088,-99.084927,"19.339088,-99.084927"
304,C. OCELOPAN,C. CUITLAHUAC,AMPLIACION LOS REYES CULHUACAN,IZTAPALAPA,CON BOTON,SIN ALTAVOZ,9m,WIFI GRATUITO_ACTIVO,19.345654,-99.106521,"19.345654,-99.106521"
305,CALZ. DE TLALPAN,C. SILLON DE MENDOZA,TORIELLO GUERRA,TLALPAN,CON BOTON,CON ALTAVOZ,9m,WIFI GRATUITO_ACTIVO,19.293869,-99.157143,"19.293869,-99.157143"
306,CALZ. FUENTES BROTANTES,ENTRE AV. INSURGENTES SUR Y PRIV. FUENTES BROTANTES,BARRIO CAMISETAS,TLALPAN,CON BOTON,CON ALTAVOZ,9m,WIFI GRATUITO_ACTIVO,19.289388,-99.174839,"19.289388,-99.174839"
307,C. ALFREDO V. BONFIL,ENTRE C. JESUS LECUONA Y C. VENUSTIANO CARRANZA,AMPL. MIGUEL HIDALGO 3A. SECC.,TLALPAN,CON BOTON,CON ALTAVOZ,9m,WIFI GRATUITO_ACTIVO,19.282257,-99.203341,"19.282257,-99.203341"
308,C. VOLCAN FUJIYAMA,ENTRE C. COTOPAXI Y C. VOLCAN CANLEON,EL MIRADOR,TLALPAN,CON BOTON,CON ALTAVOZ,9m,WIFI GRATUITO_ACTIVO,19.269322,-99.177008,"19.269322,-99.177008"
309,AV. MEXICO AJUSCO,C. LA FELICIDAD,SAN MIGUEL AJUSCO,TLALPAN,SIN BOTON,CON ALTAVOZ,9m,WIFI GRATUITO_ACTIVO,19.230427,-99.194151,"19.230427,-99.194151"
310,C. JONH F. KENNEDY,C. 1a. NORTE,ISIDRO FABELA,TLALPAN,CON BOTON,CON ALTAVOZ,9m,WIFI GRATUITO_ACTIVO,19.300035,-99.174729,"19.300035,-99.174729"
311,AV. 4,C. 7,U.H. SANTA CRUZ MEYEHUALCO,IZTAPALAPA,CON BOTON,SIN ALTAVOZ,9m,WIFI GRATUITO_ACTIVO,19.346631,-99.034133,"19.346631,-99.034133"
312,C. RICARDO FLORES MAGON,C. LIRIO,SAN MIGUEL TEOTONGO SECC. LAS TORRES,IZTAPALAPA,CON BOTON,CON ALTAVOZ,9m,WIFI GRATUITO_ACTIVO,19.350918,-98.991249,"19.350918,-98.991249"
313,C. SAN IGNACIO,C. PATRICIA,LOMAS DE ZARAGOZA,IZTAPALAPA,CON BOTON,SIN ALTAVOZ,9m,WIFI GRATUITO_ACTIVO,19.351984,-98.998885,"19.351984,-98.998885"
314,EJE 8 SUR CALZ. ERMITA IZTAPALAPA,C. RAFAEL REYES,PUEBLO SANTA MARTHA ACATITLA,IZTAPALAPA,CON BOTON,CON ALTAVOZ,9m,WIFI GRATUITO_ACTIVO,19.357407,-99.00317,"19.357407,-99.00317"
315,CALZ. ACUEDUCTO,C. ARENAL,SAN LORENZO HUIPULCO,TLALPAN,SIN BOTON,SIN ALTAVOZ,9m,WIFI GRATUITO_ACTIVO,19.294254,-99.150661,"19.294254,-99.150661"
316,CJON. CARRASCO,AV. SAN FERNANDO,TLALPAN CENTRO,TLALPAN,CON BOTON,CON ALTAVOZ,9m,WIFI GRATUITO_ACTIVO,19.293291,-99.170907,"19.293291,-99.170907"
317,C. DEL ROSAL,C. 5 DE MAYO,SAN PEDRO MARTIR,TLALPAN,CON BOTON,CON ALTAVOZ,9m,WIFI GRATUITO_ACTIVO,19.265896,-99.168684,"19.265896,-99.168684"
318,C. NUEVA YORK,C. FILADELFIA,NAPOLES,BENITO JUAREZ,CON BOTON,CON ALTAVOZ,9m,WIFI GRATUITO_ACTIVO,19.393892,-99.178232,"19.393892,-99.178232"
319,"C. CAMINO DEL ESFUERZO ""A""",C. CAMINO CENTRAL SUR,CAMPESTRE ARAGON,GUSTAVO A. MADERO,CON BOTON,CON ALTAVOZ,9m,WIFI GRATUITO_ACTIVO,19.485641,-99.078464,"19.485641,-99.078464"
320,DEPORTIVO LOS GALEANA,INTERIOR DEL DEPORTIVO,U.H. SN JUAN DE ARAGON 7A SEC.,GUSTAVO A. MADERO,CON BOTON,CON ALTAVOZ,9m,WIFI GRATUITO_ACTIVO,19.474814,-99.072645,"19.474814,-99.072645"
321,EJE 3 OTE. EDUARDO MOLINA,C. 314,NUEVA ATZACOALCO,GUSTAVO A. MADERO,CON BOTON,CON ALTAVOZ,9m,WIFI GRATUITO_ACTIVO,19.501937,-99.087887,"19.501937,-99.087887"
322,C. HUAJUAPAN DE LEON,C. ATOTONILCO,SAN FELIPE DE JESUS,GUSTAVO A. MADERO,CON BOTON,CON ALTAVOZ,9m,WIFI GRATUITO_ACTIVO,19.492896,-99.073079,"19.492896,-99.073079"
323,C. PUERTO MATAMOROS,C. PUERTO MAZATLAN,AMPLIACION CASAS ALEMAN,GUSTAVO A. MADERO,CON BOTON,CON ALTAVOZ,9m,WIFI GRATUITO_ACTIVO,19.477653,-99.080102,"19.477653,-99.080102"
324,C. PUERTO SALINAS CRUZ,AV. GRAN CANAL,AMPLIACION CASAS ALEMAN,GUSTAVO A. MADERO,CON BOTON,CON ALTAVOZ,9m,WIFI GRATUITO_ACTIVO,19.481335,-99.088694,"19.481335,-99.088694"
325,C. HEROE DE NACOZARI,C. TALPA,SAN FELIPE DE JESUS,GUSTAVO A. MADERO,CON BOTON,CON ALTAVOZ,9m,WIFI GRATUITO_ACTIVO,19.497183,-99.075953,"19.497183,-99.075953"
326,C. ESTADO DE NAYARIT,C. ESTADO DE OAXACA,PROVIDENCIA,GUSTAVO A. MADERO,CON BOTON,CON ALTAVOZ,9m,WIFI GRATUITO_ACTIVO,19.484901,-99.069669,"19.484901,-99.069669"
327,C. 1ro. DE MAYO,C. 20 DE NOVIEMBRE,25 DE JULIO,GUSTAVO A. MADERO,CON BOTON,CON ALTAVOZ,9m,WIFI GRATUITO_ACTIVO,19.496194,-99.080606,"19.496194,-99.080606"
328,C. EMILIO TUERO,ENTRE C. VIVEROS DE LA PAZ Y C. LUCHA REYES,LA FORESTAL,GUSTAVO A. MADERO,CON BOTON,CON ALTAVOZ,9m,WIFI GRATUITO_ACTIVO,19.561703,-99.12941,"19.561703,-99.12941"
329,C. ABUNDIO MATINEZ Y STRAUSS,EJE CENTRAL LAZARO CARDENAS,VALLEJO,GUSTAVO A. MADERO,CON BOTON,CON ALTAVOZ,9m,WIFI GRATUITO_ACTIVO,19.467278,-99.13735,"19.467278,-99.13735"
330,AV. JOSE LORETO FABELA,AV. 508,PUEBLO DE SAN JUAN DE ARAGON,GUSTAVO A. MADERO,CON BOTON,CON ALTAVOZ,9m,WIFI GRATUITO_ACTIVO,19.461264,-99.080619,"19.461264,-99.080619"
331,AV. FERROCARRIL HIDALGO,ENTRE C. MORELOS Y C. SAN FRANCISCO DE LOS ANGELES,VASCO DE QUIROGA,GUSTAVO A. MADERO,CON BOTON,CON ALTAVOZ,9m,WIFI GRATUITO_ACTIVO,19.492795,-99.098155,"19.492795,-99.098155"
332,C. FRANCISCO VILLA,C. ADOLFO RUIZ CORTINES,ZONA ESCOLAR,GUSTAVO A. MADERO,CON BOTON,SIN ALTAVOZ,9m,WIFI GRATUITO_ACTIVO,19.542401,-99.149842,"19.542401,-99.149842"
333,AV. TECNOLOGICO,C. PALMAS,DEL BOSQUE,GUSTAVO A. MADERO,CON BOTON,CON ALTAVOZ,9m,WIFI GRATUITO_ACTIVO,19.544366,-99.145763,"19.544366,-99.145763"
334,C. DE LA PLAYA,BLVD. TEMOLUCO,RESIDENCIAL ACUEDUCTO DE GUADALUPE,GUSTAVO A. MADERO,CON BOTON,CON ALTAVOZ,9m,WIFI GRATUITO_ACTIVO,19.526989,-99.15506,"19.526989,-99.15506"
335,C. GODARD,C. DEBUSSY,GUADALUPE VICTORIA II,GUSTAVO A. MADERO,CON BOTON,CON ALTAVOZ,9m,WIFI GRATUITO_ACTIVO,19.47017,-99.139679,"19.47017,-99.139679"
336,C. NORTE 13,C. PONIENTE 126,NUEVA VALLEJO,GUSTAVO A. MADERO,CON BOTON,CON ALTAVOZ,9m,WIFI GRATUITO_ACTIVO,19.485571,-99.144935,"19.485571,-99.144935"
337,C. NORTE 31 A,NORTE 23 A,U. H. LINDAVISTA VALLEJO,GUSTAVO A. MADERO,CON BOTON,CON ALTAVOZ,9m,WIFI GRATUITO_ACTIVO,19.494925,-99.148386,"19.494925,-99.148386"
338,AV. SAN JUAN IXTACALA,AV. 3A,SANTA ROSA,GUSTAVO A. MADERO,CON BOTON,CON ALTAVOZ,9m,REPORTE DE FALLA,19.52623,-99.172198,"19.52623,-99.172198"
339,C. MANUEL DOBLADO,C. SANTA ISABEL TOLA,AMP. BENITO JUAREZ,GUSTAVO A. MADERO,SIN BOTON,CON ALTAVOZ,9m,WIFI GRATUITO_ACTIVO,19.533791,-99.136165,"19.533791,-99.136165"
340,AV. RIO DE LOS REMEDIOS,C. 33,PROGRESO NACIONAL,GUSTAVO A. MADERO,CON BOTON,CON ALTAVOZ,9m,WIFI GRATUITO_ACTIVO,19.517906,-99.148917,"19.517906,-99.148917"
341,C. PLAN DE AYUTLA,C. ESCUADRON 201,BARRIO LA PURISIMA TICOMAN,GUSTAVO A. MADERO,CON BOTON,CON ALTAVOZ,9m,WIFI GRATUITO_ACTIVO,19.516027,-99.135875,"19.516027,-99.135875"
342,C. GRAL. MANUEL M. LOPEZ,AV. SAN RAFAEL ATLIXCO,BARRIO SANTA ANA PONIENTE,TLAHUAC,CON BOTON,CON ALTAVOZ,9m,WIFI GRATUITO_ACTIVO,19.305323,-99.041909,"19.305323,-99.041909"
343,PROL. SALVADOR DIAZ MIRON,C. GITANA,BARRIO SANTA ANA PONIENTE,TLAHUAC,CON BOTON,CON ALTAVOZ,9m,WIFI GRATUITO_ACTIVO,19.304413,-99.049953,"19.304413,-99.049953"
344,AV. TLAHUAC,C. SEBASTIAN TREJO,BARRIO SANTIAGO SUR,TLAHUAC,CON BOTON,CON ALTAVOZ,9m,WIFI GRATUITO_ACTIVO,19.296339,-99.035389,"19.296339,-99.035389"
345,C. SOR JUANA INES DE LA CRUZ,C. LANGOSTA,DEL MAR,TLAHUAC,CON BOTON,CON ALTAVOZ,9m,WIFI GRATUITO_ACTIVO,19.283409,-99.057216,"19.283409,-99.057216"
346,C. 12,C. 21,PRO HOGAR,AZCAPOTZALCO,CON BOTON,CON ALTAVOZ,9m,WIFI GRATUITO_ACTIVO,19.476426,-99.153926,"19.476426,-99.153926"
347,AV. SANTA LUCIA,C. 27,OLIVAR DEL CONDE 2da SECC.,ALVARO OBREGON,CON BOTON,CON ALTAVOZ,9m,WIFI GRATUITO_ACTIVO,19.370074,-99.217565,"19.370074,-99.217565"
348,C. CTO. 1,C. DR. FCO. DE P. MIRANDA,LOMAS DE PLATEROS,ALVARO OBREGON,CON BOTON,CON ALTAVOZ,9m,REPORTE DE FALLA,19.366499,-99.196303,"19.366499,-99.196303"
349,AV. JAVIER BARROS SIERRA,C. ANTONIO DOVALI JAIME,LA FE,ALVARO OBREGON,SIN BOTON,CON ALTAVOZ,9m,WIFI GRATUITO_ACTIVO,19.366543,-99.258641,"19.366543,-99.258641"
350,CALZ. DE LAS AGUILAS,C. ESPIGONES,LAS AGUILAS,ALVARO OBREGON,CON BOTON,CON ALTAVOZ,9m,WIFI GRATUITO_ACTIVO,19.349352,-99.251666,"19.349352,-99.251666"
351,C. PURISIMA,ENTRE CAMINO VIEJO A MIXCOAC Y C. OTENCO,PUEBLO SAN BARTOLO AMEYALCO,ALVARO OBREGON,CON BOTON,CON ALTAVOZ,9m,WIFI GRATUITO_ACTIVO,19.330323,-99.27627,"19.330323,-99.27627"
352,C. FRONTERA,C. ARTIAGA,SAN ANGEL,ALVARO OBREGON,SIN BOTON,SIN ALTAVOZ,9m,WIFI GRATUITO_ACTIVO,19.341948,-99.194615,"19.341948,-99.194615"
353,AV. VASCO DE QUIROGA,C. ANTONIO DOVALI JAIME,PEÑA BLANCA,ALVARO OBREGON,SIN BOTON,CON ALTAVOZ,9m,WIFI GRATUITO_ACTIVO,19.369998,-99.261287,"19.369998,-99.261287"
354,C. PUERTO MEXICO,C. CHAMIXTO,LOMAS DEL PADRE,CUAJIMALPA,CON BOTON,CON ALTAVOZ,9m,WIFI GRATUITO_ACTIVO,19.353913,-99.307012,"19.353913,-99.307012"
355,C. BALCON DE CEHUAYO,C. JOSE SANTOS CHOCANO,VILLA PROGRESISTA,ALVARO OBREGON,CON BOTON,CON ALTAVOZ,9m,WIFI GRATUITO_ACTIVO,19.356841,-99.240975,"19.356841,-99.240975"
356,C. CAMINO A SANTA LUCIA,ENTRE C. LA ROSA Y C. SANTO DOMINGO,PUEBLO SANTA CRUZ ACAYUCAN,AZCAPOTZALCO,SIN BOTON,CON ALTAVOZ,9m,WIFI GRATUITO_ACTIVO,19.476314,-99.195309,"19.476314,-99.195309"
357,C. RIO BLANCO,ENTRE C. JACARANDAS Y C. PLANETAS,U.H. EL ROSARIO,AZCAPOTZALCO,SIN BOTON,CON ALTAVOZ,9m,WIFI GRATUITO_ACTIVO,19.5055,-99.204522,"19.5055,-99.204522"
358,AV. AQUILES SERDAN,PRIV.3 AQUILES SERDAN,SANTO DOMINGO,AZCAPOTZALCO,CON BOTON,CON ALTAVOZ,9m,WIFI GRATUITO_ACTIVO,19.487769,-99.191841,"19.487769,-99.191841"
359,C. URANIO,C. ALBAÑILES,U. HAB. EL ROSARIO,AZCAPOTZALCO,CON BOTON,CON ALTAVOZ,9m,WIFI GRATUITO_ACTIVO,19.511044,-99.198645,"19.511044,-99.198645"
360,C. TEJEDORES,C. PESCADORES,U. HAB. EL ROSARIO II,AZCAPOTZALCO,CON BOTON,CON ALTAVOZ,9m,WIFI GRATUITO_ACTIVO,19.51115,-99.202422,"19.51115,-99.202422"
361,C. NTE 87,C. ASPIROS,SINDICATO MEXICANO DE ELECTRICISTAS,AZCAPOTZALCO,CON BOTON,CON ALTAVOZ,9m,WIFI GRATUITO_ACTIVO,19.474717,-99.178895,"19.474717,-99.178895"
362,C. NORTE 57,AV. BIOL. MAXIMINO MARTINEZ,OBRERO POPULAR,AZCAPOTZALCO,CON BOTON,CON ALTAVOZ,9m,REPORTE DE FALLA,19.461253,-99.173139,"19.461253,-99.173139"
363,C. 7,AV. 1,SAN PEDRO DE LOS PINOS,BENITO JUAREZ,CON BOTON,CON ALTAVOZ,9m,WIFI GRATUITO_ACTIVO,19.392323,-99.184668,"19.392323,-99.184668"
364,C. 4,AV. 1ro DE MAYO,SAN PEDRO DE LOS PINOS,BENITO JUAREZ,CON BOTON,CON ALTAVOZ,9m,WIFI GRATUITO_ACTIVO,19.391044,-99.186956,"19.391044,-99.186956"
365,C. JESUS URUETA,C. HORACIO NELSON,MODERNA,BENITO JUAREZ,CON BOTON,CON ALTAVOZ,9m,WIFI GRATUITO_ACTIVO,19.39385,-99.133838,"19.39385,-99.133838"
366,C. SAN BORJA,AV. COYOACAN,DEL VALLE,BENITO JUAREZ,CON BOTON,CON ALTAVOZ,9m,WIFI GRATUITO_ACTIVO,19.384969,-99.167608,"19.384969,-99.167608"
367,AV. CUAUHTEMOC,C. ESPERANZA,NARVARTE PONIENTE,BENITO JUAREZ,CON BOTON,CON ALTAVOZ,9m,WIFI GRATUITO_ACTIVO,19.40015,-99.155591,"19.40015,-99.155591"
368,C. ANAXAGORAS,AV. LA MORENA,NARVARTE,BENITO JUAREZ,CON BOTON,CON ALTAVOZ,9m,WIFI GRATUITO_ACTIVO,19.398108,-99.156731,"19.398108,-99.156731"
369,AV. NIÑOS HEROES,AV. ISABEL LA CATOLICA,JOSEFA ORTIZ DE DOMINGUEZ,BENITO JUAREZ,CON BOTON,CON ALTAVOZ,9m,WIFI GRATUITO_ACTIVO,19.386938,-99.142585,"19.386938,-99.142585"
370,C. 5 DE FEBRERO,C. SAN SIMON,SAN SIMON TICUMAC,BENITO JUAREZ,CON BOTON,CON ALTAVOZ,9m,WIFI GRATUITO_ACTIVO,19.373473,-99.142935,"19.373473,-99.142935"
371,EJE 7-A SUR AV. EMILIANO ZAPATA,C. PETEN (PROL. REPUBLICAS),EMPERADORES (EMILIANO ZAPATA),BENITO JUAREZ,CON BOTON,CON ALTAVOZ,9m,WIFI GRATUITO_ACTIVO,19.366578,-99.156838,"19.366578,-99.156838"
372,C. BALSAS,C. MIRAVALLE,MIRAVALLE,BENITO JUAREZ,CON BOTON,CON ALTAVOZ,9m,WIFI GRATUITO_ACTIVO,19.360656,-99.14048,"19.360656,-99.14048"
373,C. ANENECUILCO,ENTRE C. SOTO Y GAMA,U. H. EMILIANO ZAPATA,COYOACAN,CON BOTON,CON ALTAVOZ,9m,WIFI GRATUITO_ACTIVO,19.316741,-99.111011,"19.316741,-99.111011"
374,AVE. EJE 10 SUR,"AVE,. CERRO DEL AGUA",COPILCO UNIVERSIDAD,COYOACAN,CON BOTON,CON ALTAVOZ,9m,WIFI GRATUITO_ACTIVO,19.336146,-99.174013,"19.336146,-99.174013"
375,C. CHAHUACINGO,CDA. YOLO,PEDREGAL DE SANTO DOMINGO,COYOACAN,CON BOTON,CON ALTAVOZ,9m,WIFI GRATUITO_ACTIVO,19.316649,-99.171168,"19.316649,-99.171168"
376,C. MARCOS H. PULIDO,ENTRE RETORNO 20 Y C. PIEDRA DEL SOL,AVANTE,COYOACAN,CON BOTON,CON ALTAVOZ,9m,REPORTE DE FALLA,19.332722,-99.134645,"19.332722,-99.134645"
377,EJE 1 OTE. ANILLO DE CIRCUNVALACION,AV. FRAY SERVANDO TERESA DE MIER,CENTRO,CUAUHTEMOC,CON BOTON,SIN ALTAVOZ,9m,WIFI GRATUITO_ACTIVO,19.423001,-99.126099,"19.423001,-99.126099"
378,EJE 2 NORTE MANUEL GONZÁLEZ,ENTRE EJE 1 PTE. GUERRERO Y ZOLTAN KODALY,NONOALCO TLATELOLCO,CUAUHTEMOC,CON BOTON,CON ALTAVOZ,9m,WIFI GRATUITO_ACTIVO,19.455685,-99.143426,"19.455685,-99.143426"
379,C. 28,C. 15,PROGRESO NACIONAL,GUSTAVO A. MADERO,CON BOTON,SIN ALTAVOZ,9m,WIFI GRATUITO_ACTIVO,19.520507,-99.157513,"19.520507,-99.157513"
380,EJE 1 PTE. GUERRERO,C. MAGNOLIA,BUENAVISTA,CUAUHTEMOC,CON BOTON,CON ALTAVOZ,9m,WIFI GRATUITO_ACTIVO,19.443372,-99.148015,"19.443372,-99.148015"
381,C. PTE. 134,EJE CENTRAL LAZARO CARDENAS,NUEVA VALLEJO,GUSTAVO A. MADERO,CON BOTON,CON ALTAVOZ,9m,WIFI GRATUITO_ACTIVO,19.490596,-99.145662,"19.490596,-99.145662"
382,C. PROGRESO NACIONAL,C. 16,GUADALUPE FRACC.,GUSTAVO A. MADERO,CON BOTON,SIN ALTAVOZ,9m,WIFI GRATUITO_ACTIVO,19.519015,-99.15796,"19.519015,-99.15796"
383,C. FRANCISCO PIMENTEL (C. ROSAS MORENO),C. ROSAS MORENO (ENTRE C. FRANCISCO PIMENTEL Y C. ALFONSO HERRERA),SAN RAFAEL,CUAUHTEMOC,CON BOTON,CON ALTAVOZ,9m,WIFI GRATUITO_ACTIVO,19.438532,-99.161529,"19.438532,-99.161529"
384,C. BUENTONO,C. ERNESTO PUGIBET,CENTRO,CUAUHTEMOC,CON BOTON,CON ALTAVOZ,9m,WIFI GRATUITO_ACTIVO,19.429468,-99.143403,"19.429468,-99.143403"
385,C. CÓRDOBA,C. COLIMA,ROMA NORTE,CUAUHTEMOC,CON BOTON,CON ALTAVOZ,9m,WIFI GRATUITO_ACTIVO,19.420016,-99.158986,"19.420016,-99.158986"
386,C. COLIMA,C. COZUMEL,ROMA NORTE,CUAUHTEMOC,CON BOTON,CON ALTAVOZ,9m,WIFI GRATUITO_ACTIVO,19.417269,-99.171015,"19.417269,-99.171015"
387,EJE 3 PTE. MEDELLÍN,C. COLIMA,ROMA NORTE,CUAUHTEMOC,CON BOTON,CON ALTAVOZ,9m,WIFI GRATUITO_ACTIVO,19.418333,-99.166284,"19.418333,-99.166284"
388,C. FRANCISCO AYALA,EJE 3 SUR CHABACANO,AMPL. ASTURIAS,CUAUHTEMOC,CON BOTON,CON ALTAVOZ,9m,WIFI GRATUITO_ACTIVO,19.408358,-99.134506,"19.408358,-99.134506"
389,C. LOPEZ,C. VIZCAINAS,CENTRO,CUAUHTEMOC,CON BOTON,CON ALTAVOZ,9m,WIFI GRATUITO_ACTIVO,19.429189,-99.142622,"19.429189,-99.142622"
390,AV. DR. RIO DE LA LOZA,ENTRE AV. DR. JOSE MA. VERTIZ Y C. DR. ANDRADE,DOCTORES,CUAUHTEMOC,CON BOTON,CON ALTAVOZ,9m,REPORTE DE FALLA,19.425319,-99.146142,"19.425319,-99.146142"
391,AV. LORENZO BOTURINI,C. XOCONGO,TRANSITO,CUAUHTEMOC,CON BOTON,CON ALTAVOZ,9m,WIFI GRATUITO_ACTIVO,19.4176,-99.131912,"19.4176,-99.131912"
392,AV. MEXICO SUR (SIN NOMBRE),ENTRE AV. HIDALGO Y AV. SAN LUIS POTOSI,PUEBLO VILLA MILPA ALTA,MILPA ALTA,CON BOTON,CON ALTAVOZ,9m,WIFI GRATUITO_ACTIVO,19.188944,-99.024163,"19.188944,-99.024163"
393,C. 28,C. 19,GUADALUPE PROLETARIA,GUSTAVO A. MADERO,CON BOTON,CON ALTAVOZ,9m,WIFI GRATUITO_ACTIVO,19.519659,-99.155892,"19.519659,-99.155892"
394,C. GONZALO GURIEL,AV. MIGUEL LERDO DE TEJADA,EL TEPETATAL,GUSTAVO A. MADERO,CON BOTON,CON ALTAVOZ,9m,WIFI GRATUITO_ACTIVO,19.562908,-99.138686,"19.562908,-99.138686"
395,C. PROGRESO NACIONAL,C. LAZARO CARDENAS,GUADALUPE PROLETARIA,GUSTAVO A. MADERO,CON BOTON,CON ALTAVOZ,9m,WIFI GRATUITO_ACTIVO,19.518104,-99.156015,"19.518104,-99.156015"
396,C. 7,C. CORONA DEL ROSAL,AMPLIACION GUADALUPE PETROLERA,GUSTAVO A. MADERO,CON BOTON,CON ALTAVOZ,9m,WIFI GRATUITO_ACTIVO,19.519392,-99.149657,"19.519392,-99.149657"
397,EJE 5 NORTE MONTEVIDEO,AV. 17 DE MAYO,SAN BARTOLO ATEPEHUACAN,GUSTAVO A. MADERO,SIN BOTON,CON ALTAVOZ,9m,WIFI GRATUITO_ACTIVO,19.492694,-99.142496,"19.492694,-99.142496"
398,C. 18 DE MARZO,C. DEL PAIS,LAGUNA DE TICOMAN,GUSTAVO A. MADERO,CON BOTON,CON ALTAVOZ,9m,WIFI GRATUITO_ACTIVO,19.516671,-99.132372,"19.516671,-99.132372"
399,C. BUENAVISTA,ENTRE C. PULACAYO Y C. LATACUNGA,LINDAVISTA,GUSTAVO A. MADERO,SIN BOTON,CON ALTAVOZ,9m,WIFI GRATUITO_ACTIVO,19.491566,-99.128315,"19.491566,-99.128315"
400,C. PUERTO TAMPICO,PUERTO COATZACOALCO,AMPLIACION CASAS ALEMAN,GUSTAVO A. MADERO,CON BOTON,CON ALTAVOZ,9m,WIFI GRATUITO_ACTIVO,19.477436,-99.087378,"19.477436,-99.087378"
401,C. CUZCO,EJE 5 NORTE MONTEVIDEO,LINDAVISTA,GUSTAVO A. MADERO,CON BOTON,CON ALTAVOZ,9m,WIFI GRATUITO_ACTIVO,19.489873,-99.131392,"19.489873,-99.131392"
402,C. 316,C. 305,NUEVA ATZACOALCO,GUSTAVO A. MADERO,CON BOTON,CON ALTAVOZ,9m,WIFI GRATUITO_ACTIVO,19.503771,-99.086463,"19.503771,-99.086463"
403,AV. CENTENARIO,ENTRE CDA. E. ZAPATA Y C. 16 DE SEPTIEMBRE,ATZACOALCO,GUSTAVO A. MADERO,SIN BOTON,CON ALTAVOZ,9m,WIFI GRATUITO_ACTIVO,19.498409,-99.09626,"19.498409,-99.09626"
404,C. GUADALUPE VICTORIA,C. INDEPENDENCIA,25 DE JULIO,GUSTAVO A. MADERO,CON BOTON,CON ALTAVOZ,9m,WIFI GRATUITO_ACTIVO,19.495825,-99.078567,"19.495825,-99.078567"
405,C. MOCTEZUMA,AV. 5 DE FEBRERO,ARAGON LA VILLA,GUSTAVO A. MADERO,CON BOTON,CON ALTAVOZ,9m,WIFI GRATUITO_ACTIVO,19.479749,-99.115509,"19.479749,-99.115509"
406,C. MONTIEL,C. COQUIMBO,LINDAVISTA,GUSTAVO A. MADERO,CON BOTON,CON ALTAVOZ,9m,WIFI GRATUITO_ACTIVO,19.487446,-99.127828,"19.487446,-99.127828"
407,AV. 661,CDA. AV. 661,U. H. NARCISO BASSOLS,GUSTAVO A. MADERO,CON BOTON,CON ALTAVOZ,9m,WIFI GRATUITO_ACTIVO,19.456108,-99.061386,"19.456108,-99.061386"
408,AND. AGRUPAMIENTO I,AND. AGRUPAMIENTO J,U. H. NARCISO BASSOLS,GUSTAVO A. MADERO,CON BOTON,CON ALTAVOZ,9m,WIFI GRATUITO_ACTIVO,19.455579,-99.057237,"19.455579,-99.057237"
409,2a CDA. 633,C. 633,SAN JUAN DE ARAGON 4TA SECC.,GUSTAVO A. MADERO,CON BOTON,CON ALTAVOZ,9m,WIFI GRATUITO_ACTIVO,19.458455,-99.065929,"19.458455,-99.065929"
410,AV. 414 A,AV. 479,U. H. SAN JUAN DE ARAGON VII SECC.,GUSTAVO A. MADERO,CON BOTON,CON ALTAVOZ,9m,WIFI GRATUITO_ACTIVO,19.471279,-99.076765,"19.471279,-99.076765"
411,C. 1527,AV. 414-A,U. H. SAN JUAN DE ARGON VI SECCION,GUSTAVO A. MADERO,CON BOTON,CON ALTAVOZ,9m,WIFI GRATUITO_ACTIVO,19.466567,-99.065268,"19.466567,-99.065268"
412,CDA. 637,C. 637,SAN JUAN DE ARAGON 6TA. SECC.,GUSTAVO A. MADERO,CON BOTON,CON ALTAVOZ,9m,REPORTE DE FALLA,19.449676,-99.063001,"19.449676,-99.063001"
413,C. FERROCARRIL DE CUERNAVACA,C. NOGAL,LA CRUZ,MAGDALENA CONTRERAS,CON BOTON,CON ALTAVOZ,9m,WIFI GRATUITO_ACTIVO,19.307244,-99.236135,"19.307244,-99.236135"
414,AV. CANAL DE TEZONTLE,MIGUEL GARCÍA,LOS PICOS DE IZTACALCO SECC 1-A,IZTACALCO,CON BOTON,CON ALTAVOZ,9m,REPORTE DE FALLA,19.388481,-99.112915,"19.388481,-99.112915"
415,AV. NORTE,C. 4,PANTITLAN,IZTACALCO,CON BOTON,CON ALTAVOZ,9m,WIFI GRATUITO_ACTIVO,19.410147,-99.062711,"19.410147,-99.062711"
416,C. 6,AV. PUEBLA,PANTITLAN (AGRICOLA PANTITLAN),IZTACALCO,CON BOTON,CON ALTAVOZ,9m,REPORTE DE FALLA,19.400889,-99.060079,"19.400889,-99.060079"
417,C. RODOLFO USIGLI,EJE 2 OTE. CALZ. LA VIGA,HEROES DE CHURUBUSCO,IZTAPALAPA,CON BOTON,CON ALTAVOZ,9m,WIFI GRATUITO_ACTIVO,19.363677,-99.122112,"19.363677,-99.122112"
418,AVENIDA TLAHUAC,C. CUITLAHUAC,LOS REYES CULHUACAN,IZTAPALAPA,CON BOTON,CON ALTAVOZ,9m,WIFI GRATUITO_ACTIVO,19.345906,-99.107635,"19.345906,-99.107635"
419,EJE 2 OTE. CALZ. DE LA VIGA,CALZ. ERMITA IZTAPALAPA,MEXICALTZINGO,IZTAPALAPA,CON BOTON,CON ALTAVOZ,9m,WIFI GRATUITO_ACTIVO,19.355803,-99.12172,"19.355803,-99.12172"
420,C. SEBASTIAN BARINGUETO,C. EDUARDO GARCIA,EJERCITO DE AGUA PRIETA,IZTAPALAPA,CON BOTON,CON ALTAVOZ,9m,REPORTE DE FALLA,19.368834,-99.038817,"19.368834,-99.038817"
421,C. 31,AV. 4,U. H. SANTA CRUZ MEYEHUALCO,IZTAPALAPA,CON BOTON,CON ALTAVOZ,9m,WIFI GRATUITO_ACTIVO,19.346129,-99.039165,"19.346129,-99.039165"
422,AV. HERMINIO CHAVARRIA,C. PLAN DE AYALA,Z.U.E. STA. MARIA AZTAHUACAN,IZTAPALAPA,CON BOTON,CON ALTAVOZ,9m,WIFI GRATUITO_ACTIVO,19.355837,-99.03262,"19.355837,-99.03262"
423,C. 65,ENTRE AV. SAMUEL GOPERS Y AV.10,U. H. SANTA CRUZ MEYEHUALCO,IZTAPALAPA,CON BOTON,CON ALTAVOZ,9m,WIFI GRATUITO_ACTIVO,19.349691,-99.046923,"19.349691,-99.046923"
424,AV. CARLOS L. GRACIDA (C. COMBATE DE CELAYA),AV. COMBATE DE CELAYA (CAMPAÑA DE EBANO),U. H. VICENTE GUERRERO,IZTAPALAPA,SIN BOTON,CON ALTAVOZ,9m,WIFI GRATUITO_ACTIVO,19.356721,-99.049045,"19.356721,-99.049045"
425,AV. DÍAZ SOTO Y GAMA,ANILLO PERIFÉRICO CANAL DE SAN JUAN,UNIDAD VICENTE GUERRERO,IZTAPALAPA,CON BOTON,CON ALTAVOZ,9m,WIFI GRATUITO_ACTIVO,19.359104,-99.057619,"19.359104,-99.057619"
426,C. GRAL. JUAN DE LA LUZ ENRIQUEZ,C. JOSE ZUBIETA,JUAN ESCUTIA,IZTAPALAPA,CON BOTON,CON ALTAVOZ,9m,WIFI GRATUITO_ACTIVO,19.392192,-99.043143,"19.392192,-99.043143"
427,C. GRAL. JOSE TRINIDAD SALGADO,C. CORONEL LINO MERINO,JUAN ESCUTIA,IZTAPALAPA,CON BOTON,CON ALTAVOZ,9m,REPORTE DE FALLA,19.395504,-99.049851,"19.395504,-99.049851"
428,AV. TELECOMUNICACIONES,AV. UNIVERSIDAD,U. H. EJERCITO CONSTITUCIONALISTA,IZTAPALAPA,CON BOTON,CON ALTAVOZ,9m,WIFI GRATUITO_ACTIVO,19.382579,-99.050373,"19.382579,-99.050373"
429,C. 18 DE MARZO,C. LAZARO CARDENAS,SAN MIGUEL TEOTONCO SECC. PUENTE,IZTAPALAPA,CON BOTON,CON ALTAVOZ,9m,WIFI GRATUITO_ACTIVO,19.34695,-98.987222,"19.34695,-98.987222"
430,C. PALMAS (RIO ATOYAC),C. RINCONADA CERRITO (CERRITO),CONSEJO AGRARISTA MEXICANO,IZTAPALAPA,CON BOTON,CON ALTAVOZ,9m,WIFI GRATUITO_ACTIVO,19.322713,-99.061916,"19.322713,-99.061916"
431,C. LARUREL,ENTRE C. ALAMO Y AV. FLORES,EL POTRERO,IZTAPALAPA,CON BOTON,CON ALTAVOZ,9m,WIFI GRATUITO_ACTIVO,19.329985,-98.976272,"19.329985,-98.976272"
432,C. MANUEL ACUÑA,C. SANTA ELENA,PALMITAS,IZTAPALAPA,CON BOTON,CON ALTAVOZ,9m,WIFI GRATUITO_ACTIVO,19.331829,-99.025399,"19.331829,-99.025399"
433,AV. DE LAS TORRES,C. DALIA,LAS CRUCES,IZTAPALAPA,SIN BOTON,CON ALTAVOZ,9m,WIFI GRATUITO_ACTIVO,19.328259,-98.972553,"19.328259,-98.972553"
434,AVENIDA DEL PARAISO,C. CAPULIN,SAN MIGUEL TEOTONGO SECC. CAMPAMENTO,IZTAPALAPA,CON BOTON,CON ALTAVOZ,9m,WIFI GRATUITO_ACTIVO,19.339332,-98.992522,"19.339332,-98.992522"
435,AVENIDA 5 DE MAYO,C. GALEANA,PUEBLO STA. CRUZ MEYEHUALCO,IZTAPALAPA,CON BOTON,CON ALTAVOZ,9m,WIFI GRATUITO_ACTIVO,19.341684,-99.048869,"19.341684,-99.048869"
436,C. RAFAEL DOMINGUEZ,C. PEDRO LLAMAS,TENORIOS,IZTAPALAPA,CON BOTON,CON ALTAVOZ,9m,WIFI GRATUITO_ACTIVO,19.331689,-99.022799,"19.331689,-99.022799"
437,AV. MEXICO,C. TIHUATLAN,SAN JERONIMO ACULCO,MAGDALENA CONTRERAS,CON BOTON,CON ALTAVOZ,9m,WIFI GRATUITO_ACTIVO,19.318454,-99.223727,"19.318454,-99.223727"
438,JOSÉ MORENO SALIDO,CORDOBA,BARRANCA SECA,MAGDALENA CONTRERAS,CON BOTON,CON ALTAVOZ,9m,WIFI GRATUITO_ACTIVO,19.305055,-99.241477,"19.305055,-99.241477"
439,C. EMILIANO ZAPATA,C. BRAVO,ZONA CENTRO,VENUSTIANO CARRANZA,CON BOTON,CON ALTAVOZ,9m,WIFI GRATUITO_ACTIVO,19.432547,-99.122763,"19.432547,-99.122763"
440,CALZ. MEXICO-TACUBA,C. FELIPE CARRILLO PUERTO (C. MAESTRO RURAL),ANAHUAC (UN HOGAR PARA NOSOTROS),MIGUEL HIDALGO,SIN BOTON,CON ALTAVOZ,9m,WIFI GRATUITO_ACTIVO,19.448986,-99.171802,"19.448986,-99.171802"
441,C. GENERAL ARISTA,IGNACIO ALLENDE,SAN JOAQUIN,MIGUEL HIDALGO,CON BOTON,CON ALTAVOZ,9m,REPORTE DE FALLA,19.455264,-99.209832,"19.455264,-99.209832"
442,AV. MONTE CAUCASO,C. MONTE LIBANO,LOMAS DE CHAPULTEPEC,MIGUEL HIDALGO,CON BOTON,CON ALTAVOZ,9m,WIFI GRATUITO_ACTIVO,19.419461,-99.218506,"19.419461,-99.218506"
443,C. ADRIAN CASTREJON,C. MACARIO GAXIOLA,AMPL. SAN PEDRO XALPA,AZCAPOTZALCO,CON BOTON,CON ALTAVOZ,9m,WIFI GRATUITO_ACTIVO,19.483556,-99.214662,"19.483556,-99.214662"
444,AV. AZCAPOTZALCO,ENTRE LAGO ATHABASKA Y GOLFO DE TEHUANORTEPEC,SAN ALVARO,AZCAPOTZALCO,CON BOTON,CON ALTAVOZ,9m,WIFI GRATUITO_ACTIVO,19.461608,-99.188284,"19.461608,-99.188284"
445,C. CAMINO A SANTIAGO,EJE 8 SUR CALZ. ERMITA IZTAPALAPA,SANTIAGO ACAHUALTEPEC,IZTAPALAPA,CON BOTON,CON ALTAVOZ,9m,WIFI GRATUITO_ACTIVO,19.354171,-99.010254,"19.354171,-99.010254"
446,C. 20 DE NOVIEMBRE,AV. DE LAS TORRES ( EJE 6 ),Z.U.E. STA. MA. AZTAHUACAN,IZTAPALAPA,CON BOTON,CON ALTAVOZ,9m,WIFI GRATUITO_ACTIVO,19.360034,-99.030403,"19.360034,-99.030403"
447,C. SAN RAFAEL ATLIXCO,C. SANTA CRUZ,EL TRIANGULO,IZTAPALAPA,CON BOTON,CON ALTAVOZ,9m,REPORTE DE FALLA,19.313335,-99.045311,"19.313335,-99.045311"
448,C. JUANA DE ARCO,C. MUZIO CLEMENTI,MIGUEL HIDALGO,TLAHUAC,CON BOTON,CON ALTAVOZ,9m,WIFI GRATUITO_ACTIVO,19.293669,-99.046964,"19.293669,-99.046964"
449,AV. TLAHUAC ANTES MEXICO-TULYEHUALCO,C. NARCISO MENDOZA,LA CONCHITA,TLAHUAC,CON BOTON,CON ALTAVOZ,9m,WIFI GRATUITO_ACTIVO,19.296589,-99.04088,"19.296589,-99.04088"
450,C. MONTE PIRINEOS,C. MAR DE LAS CRISIS,SELENE 1ra SECCION,TLAHUAC,CON BOTON,CON ALTAVOZ,9m,WIFI GRATUITO_ACTIVO,19.290041,-99.008099,"19.290041,-99.008099"
451,AV. ESTANISLAO RAMIREZ RUIZ ( EJE 10 SUR ),C. MAR FRIO,SELENE 1RA. SECC. (AMPL. SELENE),TLAHUAC,CON BOTON,CON ALTAVOZ,9m,WIFI GRATUITO_ACTIVO,19.293343,-98.998129,"19.293343,-98.998129"
452,AVENIDA 20 DE NOVIEMBRE,CDA. 20 DE NOVIEMBRE,SAN NICOLAS TETELCO,TLAHUAC,SIN BOTON,CON ALTAVOZ,9m,WIFI GRATUITO_ACTIVO,19.211277,-98.969861,"19.211277,-98.969861"
453,CARRETERA PICACHO AJUSCO,CAMINO VIEJO A MANINAL,SANTO TOMAS AJUSCO,TLALPAN,SIN BOTON,CON ALTAVOZ,9m,WIFI GRATUITO_ACTIVO,19.210989,-99.217055,"19.210989,-99.217055"
454,C. CORREGIDORA,C. CAMPO XOCHITL,MIGUEL HIDALGO 1ra. SECCION,TLALPAN,CON BOTON,CON ALTAVOZ,9m,WIFI GRATUITO_ACTIVO,19.290357,-99.182857,"19.290357,-99.182857"
455,C. SABINO,C. CEIBA,VISTAS DEL PEDREGAL,TLALPAN,CON BOTON,CON ALTAVOZ,9m,WIFI GRATUITO_ACTIVO,19.271486,-99.235504,"19.271486,-99.235504"
456,C. TIZIMIN,C. CELESTUN,HEROES DE PADIERNA,TLALPAN,CON BOTON,CON ALTAVOZ,9m,WIFI GRATUITO_ACTIVO,19.28965,-99.214788,"19.28965,-99.214788"
457,ANILLO PERIFERICO,ENTRE AV. ZACATEPETL Y AV. INSURGENTES SUR,PARQUE DEL PEDREGAL,TLALPAN,CON BOTON,CON ALTAVOZ,9m,WIFI GRATUITO_ACTIVO,19.302252,-99.189695,"19.302252,-99.189695"
458,C. PEDRO MORENO,C. CIRCUITO PICACHO AJUSCO,PUEBLO SANTO TOMAS AJUSCO,TLALPAN,CON BOTON,CON ALTAVOZ,9m,WIFI GRATUITO_ACTIVO,19.216993,-99.213895,"19.216993,-99.213895"
459,C. TARASCOS,C. TOTONACAS,TLALCOLIGIA,TLALPAN,CON BOTON,CON ALTAVOZ,9m,WIFI GRATUITO_ACTIVO,19.277389,-99.173462,"19.277389,-99.173462"
460,C. DILIGENCIAS,ENTRE C. VIOLETA Y C. DILIGENCIA,SAN PEDRO MARTIR,TLALPAN,CON BOTON,CON ALTAVOZ,9m,WIFI GRATUITO_ACTIVO,19.269009,-99.169033,"19.269009,-99.169033"
461,C. IGNACIO ALLENDE,ENTRE CJON. SAN FERNANDO Y C. CRUZ VERDE,TLALPAN,TLALPAN,CON BOTON,CON ALTAVOZ,9m,REPORTE DE FALLA,19.293101,-99.174531,"19.293101,-99.174531"
462,C. SUR 111 LIC. LAZARO PAVIA,ENTRE PROL. LUCAS ALAMAN Y CALZ. ZOQUIPA,AERONAUTICA MILITAR,VENUSTIANO CARRANZA,SIN BOTON,CON ALTAVOZ,9m,REPORTE DE FALLA,19.418668,-99.115216,"19.418668,-99.115216"
463,EJE OTE. CONGRESO DELA UNION,CTO. STAND DE TIRO,EL PARQUE,VENUSTIANO CARRANZA,CON BOTON,CON ALTAVOZ,9m,WIFI GRATUITO_ACTIVO,19.423982,-99.120034,"19.423982,-99.120034"
464,CTO. STAND DE TIRO,AV. CONGRESO DE LA UNION,EL PARQUE,VENUSTIANO CARRANZA,CON BOTON,CON ALTAVOZ,9m,WIFI GRATUITO_ACTIVO,19.422272,-99.118104,"19.422272,-99.118104"
465,C. IXNAHUALTONGO,EJE 2 SUR AV. DEL TALLER,LORENZO BOTURINI,VENUSTIANO CARRANZA,CON BOTON,CON ALTAVOZ,9m,WIFI GRATUITO_ACTIVO,19.413601,-99.126078,"19.413601,-99.126078"
466,AV. H .CONGRESO DE LA UNION,EJE 1 ALBAÑILES,PENITENCIARIA,VENUSTIANO CARRANZA,CON BOTON,CON ALTAVOZ,9m,WIFI GRATUITO_ACTIVO,19.438259,-99.118209,"19.438259,-99.118209"
467,C. NORTE 33,C. ORIENTE 158,MOCTEZUMA 2a. SECC.,VENUSTIANO CARRANZA,CON BOTON,CON ALTAVOZ,9m,WIFI GRATUITO_ACTIVO,19.436931,-99.096155,"19.436931,-99.096155"
468,RT. 4 MANUEL RIVERA CAMBAS,RT. 28 MANUEL RIVERA CAMBAS,JARDIN BALBUENA,VENUSTIANO CARRANZA,CON BOTON,CON ALTAVOZ,9m,WIFI GRATUITO_ACTIVO,19.423304,-99.10614,"19.423304,-99.10614"
469,C. SECRETARIA DEL TRABAJO,C. ESTABLECIMIENTOS FEBRILES,CUATRO ARBOLES,VENUSTIANO CARRANZA,CON BOTON,CON ALTAVOZ,9m,WIFI GRATUITO_ACTIVO,19.41894,-99.083375,"19.41894,-99.083375"
470,C. NEZAHUALCOYOTL,C. TLALOC,EL ARENAL 1RA. SECC.,VENUSTIANO CARRANZA,CON BOTON,CON ALTAVOZ,9m,WIFI GRATUITO_ACTIVO,19.425326,-99.066218,"19.425326,-99.066218"
471,C. VIÑEDOS (CDA. DE LAS HUERTAS),C. JARDINES,PUEBLO SANTA CECILIA TEPETLAPA,XOCHIMILCO,CON BOTON,CON ALTAVOZ,9m,WIFI GRATUITO_ACTIVO,19.215605,-99.102079,"19.215605,-99.102079"
472,AV. MORELOS,C. CUITLAHUAC,BARRIO SAN PEDRO,XOCHIMILCO,CON BOTON,CON ALTAVOZ,9m,WIFI GRATUITO_ACTIVO,19.257511,-99.105688,"19.257511,-99.105688"
473,C. FCO. I. MADERO,C. 5 DE MAYO,BARRIO SANTA CRUCITA,XOCHIMILCO,CON BOTON,CON ALTAVOZ,9m,FALLAS DE INFRAESTRUCTURA,19.261391,-99.102546,"19.261391,-99.102546"
474,C. ING. JESUS GOMEZ GONZALEZ,AV. DIVISIÓN DEL NORTE,PRADO COAPA 1RA. SECC.,TLALPAN,CON BOTON,CON ALTAVOZ,9m,WIFI GRATUITO_ACTIVO,19.302089,-99.132158,"19.302089,-99.132158"
475,EJE 8 SUR CALZ. ERMITA IZTAPALAPA,C. PRIMAVERA,PARAJE ZACATEPEC,IZTAPALAPA,CON BOTON,CON ALTAVOZ,9m,WIFI GRATUITO_ACTIVO,19.350239,-99.017909,"19.350239,-99.017909"
476,CDA. SAN JUAN K.,C. BELLAVISTA,SAN JUAN XALPA,IZTAPALAPA,CON BOTON,CON ALTAVOZ,9m,WIFI GRATUITO_ACTIVO,19.334028,-99.088596,"19.334028,-99.088596"
477,AV. APOLOACALCO,C. LUIS DONALDO COLOSIO,CAMPESTRE EL POTRERO,IZTAPALAPA,CON BOTON,CON ALTAVOZ,9m,WIFI GRATUITO_ACTIVO,19.328448,-98.970325,"19.328448,-98.970325"
478,C. 3 ÁNGEL MASÓN (C. 4 GUADALUPE MAGAÑA),C. BATALLONES ROJOS,U. H. VICENTE GUERRERO,IZTAPALAPA,CON BOTON,CON ALTAVOZ,9m,WIFI GRATUITO_ACTIVO,19.35776,-99.060935,"19.35776,-99.060935"
479,EJE 5 OTE. ROJO GOMEZ (AV. JAVIER ROJO GOMEZ),AV. M. HIDALGO,BARRIO SAN MIGUEL,IZTAPALAPA,SIN BOTON,CON ALTAVOZ,9m,WIFI GRATUITO_ACTIVO,19.358132,-99.085768,"19.358132,-99.085768"
480,AVENIDA PRESIDENTES,AVENIDA LAS TORRES,AMPL. EMILIANO ZAPATA,IZTAPALAPA,CON BOTON,CON ALTAVOZ,9m,WIFI GRATUITO_ACTIVO,19.337768,-98.97562,"19.337768,-98.97562"
481,C. EMILIO PORTES GIL,C. UNIVERSIDAD,LA REGADERA,IZTAPALAPA,CON BOTON,CON ALTAVOZ,9m,REPORTE DE FALLA,19.353883,-99.06452,"19.353883,-99.06452"
482,C. PLAZA DEL VOLADOR,C. PLAZA LORETO,DR. ALFONSO ORTIZ TIRADO,IZTAPALAPA,CON BOTON,CON ALTAVOZ,9m,WIFI GRATUITO_ACTIVO,19.387674,-99.078089,"19.387674,-99.078089"
483,AV. MICHOACAN,C. HERMENEGILDO GALEANA,GUADALUPE DEL MORAL,IZTAPALAPA,CON BOTON,CON ALTAVOZ,9m,WIFI GRATUITO_ACTIVO,19.367111,-99.079993,"19.367111,-99.079993"
484,C. GUERRA DE REFORMA,C. BATALLA DE LOMA ALTA,LEYES DE REFORMA,IZTAPALAPA,SIN BOTON,CON ALTAVOZ,9m,WIFI GRATUITO_ACTIVO,19.378383,-99.069598,"19.378383,-99.069598"
485,C. ROSA BLANCA,C. TIZIANO,SAN BARTOLO ATEPEHUACAN,ALVARO OBREGON,CON BOTON,CON ALTAVOZ,9m,WIFI GRATUITO_ACTIVO,19.374943,-99.199362,"19.374943,-99.199362"
486,AV. DE LAS CULTURAS,C. RIO BLANCO,U. H. EL ROSARIO,AZCAPOTZALCO,SIN BOTON,CON ALTAVOZ,9m,WIFI GRATUITO_ACTIVO,19.508801,-99.205459,"19.508801,-99.205459"
487,C. CASTILLA,C. TOLEDO,ALAMOS,BENITO JUAREZ,CON BOTON,CON ALTAVOZ,9m,WIFI GRATUITO_ACTIVO,19.396279,-99.14302,"19.396279,-99.14302"
488,AV. INSURGENTES NTE.,EJE 2 NTE. MANUEL GONZALEZ,ATLAMPA,CUAUHTEMOC,CON BOTON,CON ALTAVOZ,9m,WIFI GRATUITO_ACTIVO,19.457335,-99.14883,"19.457335,-99.14883"
489,C. JOAQUIN PARDAVE,AV. CUAUTEPEC,LA PASTORA,GUSTAVO A. MADERO,CON BOTON,CON ALTAVOZ,9m,WIFI GRATUITO_ACTIVO,19.526854,-99.142022,"19.526854,-99.142022"
490,AV. RIO DE LOS REMEDIOS,C. 29,GUADALUPE PROLETARIA,GUSTAVO A. MADERO,CON BOTON,CON ALTAVOZ,9m,WIFI GRATUITO_ACTIVO,19.517277,-99.150819,"19.517277,-99.150819"
491,EJE CENTRAL LAZARO CARDENAS,C. PONIENTE 152,U. H. LINDAVISTA VALLEJO,GUSTAVO A. MADERO,CON BOTON,CON ALTAVOZ,9m,WIFI GRATUITO_ACTIVO,19.501383,-99.149853,"19.501383,-99.149853"
492,C. PONIENTE 118,C. NORTE 11-A,PANAMERICANA,GUSTAVO A. MADERO,CON BOTON,CON ALTAVOZ,9m,WIFI GRATUITO_ACTIVO,19.481078,-99.145583,"19.481078,-99.145583"
493,C. NORTE 5,C. PONIENTE 112,PANAMERICANA,GUSTAVO A. MADERO,CON BOTON,CON ALTAVOZ,9m,WIFI GRATUITO_ACTIVO,19.477628,-99.143112,"19.477628,-99.143112"
494,1a CDA. DE AV. 599,AV. 599,U. H. SAN JUAN DE ARAGON 3da SECC.,GUSTAVO A. MADERO,CON BOTON,CON ALTAVOZ,9m,WIFI GRATUITO_ACTIVO,19.45117,-99.070923,"19.45117,-99.070923"
495,C. NORTE 45,C. PONIENTE 134,AZCAPOTZALCO,AZCAPOTZALCO,CON BOTON,CON ALTAVOZ,9m,WIFI GRATUITO_ACTIVO,19.493511,-99.159507,"19.493511,-99.159507"
496,EJE 4 SUR AV. TE,C. SUR 171,GABRIEL RAMOS MILLAN SECC. BRAMADERO,IZTACALCO,CON BOTON,CON ALTAVOZ,9m,WIFI GRATUITO_ACTIVO,19.395328,-99.092809,"19.395328,-99.092809"
497,PLAZA JESUS ROMERO FLORES,C. PUENTE SANTA ANA,AMPL. RAMOS MILLAN,IZTACALCO,CON BOTON,CON ALTAVOZ,9m,WIFI GRATUITO_ACTIVO,19.387016,-99.094051,"19.387016,-99.094051"
498,CALZ. GRAL. IGNACIO ZARAGOZA,CALLE TRES,AGRICOLA ORIENTAL,IZTACALCO,CON BOTON,CON ALTAVOZ,9m,WIFI GRATUITO_ACTIVO,19.402633,-99.065652,"19.402633,-99.065652"
499,AV. GAVILAN,EJE 5 OTE. AV. JAVIER ROJO GOMEZ,SAN MIGUEL,IZTAPALAPA,SIN BOTON,CON ALTAVOZ,9m,WIFI GRATUITO_ACTIVO,19.364281,-99.082892,"19.364281,-99.082892"
500,C. 4,AV. JARDIN,AMPLIACION DEL GAS,AZCAPOTZALCO,CON BOTON,CON ALTAVOZ,9m,WIFI GRATUITO_ACTIVO,19.467082,-99.159188,"19.467082,-99.159188"
501,C. ACOLHUACAN,MAXTLA Y AZTECAS,EL ARENAL 2DA. SECC.,VENUSTIANO CARRANZA,CON BOTON,CON ALTAVOZ,9m,WIFI GRATUITO_ACTIVO,19.424159,-99.057012,"19.424159,-99.057012"
502,C. PERSIA,C. NORTE 168,PENSADOR MEXICANO,VENUSTIANO CARRANZA,CON BOTON,CON ALTAVOZ,9m,WIFI GRATUITO_ACTIVO,19.441423,-99.090274,"19.441423,-99.090274"
503,AV. ACUEDUCTO,AV. ARBOLEDAS,LA NORIA,XOCHIMILCO,CON BOTON,CON ALTAVOZ,9m,WIFI GRATUITO_ACTIVO,19.264208,-99.128002,"19.264208,-99.128002"
504,AV. 16 DE SEPTIEMBRE,AV. LAS TORRES,PUEBLO TEPEPAN,XOCHIMILCO,SIN BOTON,CON ALTAVOZ,9m,WIFI GRATUITO_ACTIVO,19.269845,-99.129161,"19.269845,-99.129161"
505,EJE 8 SUR ERMITA IZTAPALAPA,C. REFORMA MUNICIPAL (MIGUEL HIDALGO),SANTA MARIA AZTAHUACAN,IZTAPALAPA,CON BOTON,CON ALTAVOZ,9m,WIFI GRATUITO_ACTIVO,19.344906,-99.025388,"19.344906,-99.025388"
506,EJE CENTRAL LAZARO CARDENAS,C. PONIENTE 110,AMPLIACION PANAMERICANA,GUSTAVO A. MADERO,CON BOTON,CON ALTAVOZ,9m,WIFI GRATUITO_ACTIVO,19.475796,-99.139871,"19.475796,-99.139871"
507,C. PONIENTE 106,C. NORTE 7-A,DEFENSORES DE LA REPUBLICA,GUSTAVO A. MADERO,CON BOTON,CON ALTAVOZ,9m,WIFI GRATUITO_ACTIVO,19.4745,-99.145015,"19.4745,-99.145015"
508,C. BUEN TONO,C. VICTORIA,INDUSTRIAL,GUSTAVO A. MADERO,CON BOTON,CON ALTAVOZ,9m,WIFI GRATUITO_ACTIVO,19.47483,-99.126149,"19.47483,-99.126149"
509,AV. HUASTECA,C. PROGRESO,INDUSTRIAL,GUSTAVO A. MADERO,SIN BOTON,CON ALTAVOZ,9m,WIFI GRATUITO_ACTIVO,19.470791,-99.125736,"19.470791,-99.125736"
510,AV. INSURGENTES NORTE,C. LARIN,INDUSTRIAL,GUSTAVO A. MADERO,CON BOTON,CON ALTAVOZ,9m,WIFI GRATUITO_ACTIVO,19.479998,-99.128678,"19.479998,-99.128678"
511,AV. LA FORTUNA,C. ZACATENCO,TEPEYAC INSURGENTES,GUSTAVO A. MADERO,CON BOTON,CON ALTAVOZ,9m,WIFI GRATUITO_ACTIVO,19.480346,-99.122208,"19.480346,-99.122208"
512,C. MIGUEL MIRAMON,C. NICOLAS BRAVO,MARTIN CARRERA,GUSTAVO A. MADERO,CON BOTON,CON ALTAVOZ,9m,WIFI GRATUITO_ACTIVO,19.488613,-99.110979,"19.488613,-99.110979"
513,AV. INSURGENTES,C. CUAUHTEMOC,RESIDENCIAL ZACATENCO,GUSTAVO A. MADERO,SIN BOTON,SIN ALTAVOZ,9m,WIFI GRATUITO_ACTIVO,19.499616,-99.117905,"19.499616,-99.117905"
514,C. BOLA DE ORO,C. PALMIRA,JUAN GONZALEZ ROMERO,GUSTAVO A. MADERO,CON BOTON,CON ALTAVOZ,9m,REPORTE DE FALLA,19.505641,-99.091529,"19.505641,-99.091529"
515,C. 314,C. 312,NUEVA ATZACOALCO,GUSTAVO A. MADERO,SIN BOTON,CON ALTAVOZ,9m,WIFI GRATUITO_ACTIVO,19.498739,-99.085684,"19.498739,-99.085684"
516,C. BRECHA,C. BARRANCA DE COCOYOTES,COCOYOTES,GUSTAVO A. MADERO,CON BOTON,CON ALTAVOZ,9m,WIFI GRATUITO_ACTIVO,19.549422,-99.127875,"19.549422,-99.127875"
517,C. CAMINO A LA SECRETARIA,C. CAMINO DE LA LIGA,CAMPESTRE ARAGON,GUSTAVO A. MADERO,CON BOTON,SIN ALTAVOZ,9m,WIFI GRATUITO_ACTIVO,19.481307,-99.083492,"19.481307,-99.083492"
518,AV. ESTADO DE TLAXCALA,C. EDO. DE NAYARIT,SAN FELIPE DE JESUS,GUSTAVO A. MADERO,CON BOTON,SIN ALTAVOZ,9m,WIFI GRATUITO_ACTIVO,19.482108,-99.070752,"19.482108,-99.070752"
519,C. ESTADO DE QUERETARO,C. CONSTITUCION DE LA REPUBLICA,SAN FELIPE DE JESUS,GUSTAVO A. MADERO,CON BOTON,SIN ALTAVOZ,9m,WIFI GRATUITO_ACTIVO,19.480988,-99.068141,"19.480988,-99.068141"
520,C. LA VOLUNTAD,C. CAMINO DE LA UNION A,CAMPESTRE ARAGON,GUSTAVO A. MADERO,CON BOTON,SIN ALTAVOZ,9m,WIFI GRATUITO_ACTIVO,19.4863,-99.075033,"19.4863,-99.075033"
521,AV. JOSE LORETO FABELA,1RA. CDA. AMISTAD,AMPL. PROVIDENCIA,GUSTAVO A. MADERO,SIN BOTON,SIN ALTAVOZ,9m,WIFI GRATUITO_ACTIVO,19.481044,-99.077008,"19.481044,-99.077008"
522,AV. CENTRAL,C. 1559,U. H. SAN JUAN DE ARAGON VI SECC.,GUSTAVO A. MADERO,CON BOTON,CON ALTAVOZ,9m,WIFI GRATUITO_ACTIVO,19.463884,-99.05884,"19.463884,-99.05884"
523,C. SAN JUAN DE LOS LAGOS,C. ATOTONILCO,SAN FELIPE DE JESUS,GUSTAVO A. MADERO,CON BOTON,SIN ALTAVOZ,9m,REPORTE DE FALLA,19.495564,-99.071206,"19.495564,-99.071206"
524,C. VILLA CACAMA,C. VILLA DE ARAGON,VILLA DE ARAGON,GUSTAVO A. MADERO,SIN BOTON,CON ALTAVOZ,9m,WIFI GRATUITO_ACTIVO,19.468891,-99.05916,"19.468891,-99.05916"
525,AV. FRANCISCO MORAZAN,C. 1531,U. H. SAN JUAN DE ARAGON VI SECC.,GUSTAVO A. MADERO,CON BOTON,CON ALTAVOZ,9m,WIFI GRATUITO_ACTIVO,19.468329,-99.063533,"19.468329,-99.063533"
526,AV. 412,PRIV. CANAL DE GUADALUPE,U.H. SAN JUAN DE ARAGON VI SECCION,GUSTAVO A. MADERO,SIN BOTON,SIN ALTAVOZ,9m,WIFI GRATUITO_ACTIVO,19.463838,-99.06155,"19.463838,-99.06155"
527,AV. JOSE LORETO FABELA,AV.414,U. H. SAN JUAN DE ARAGON VII SECCION,GUSTAVO A. MADERO,SIN BOTON,CON ALTAVOZ,9m,WIFI GRATUITO_ACTIVO,19.471938,-99.079304,"19.471938,-99.079304"
528,AV. PUERTO DE PALOS,AV. PUERTO KIEL,U.H. EJIDO SAN JUAN DE ARAGON,GUSTAVO A. MADERO,SIN BOTON,SIN ALTAVOZ,9m,WIFI GRATUITO_ACTIVO,19.469428,-99.09101,"19.469428,-99.09101"
529,AV. 661,AV. 602-B,U.H. CTM ARAGON,GUSTAVO A. MADERO,SIN BOTON,SIN ALTAVOZ,9m,WIFI GRATUITO_ACTIVO,19.451661,-99.059179,"19.451661,-99.059179"
530,AV. 699,C. 604,U. H. NARCISO BASSOLS,GUSTAVO A. MADERO,CON BOTON,CON ALTAVOZ,9m,WIFI GRATUITO_ACTIVO,19.45568,-99.053934,"19.45568,-99.053934"
531,AV. 606,C. 625,SAN JUAN DE ARAGON 4A. Y 5A. SECC.,GUSTAVO A. MADERO,SIN BOTON,CON ALTAVOZ,9m,WIFI GRATUITO_ACTIVO,19.455215,-99.066139,"19.455215,-99.066139"
532,C. CLAVE,C. CARUSO,VALLEJO,GUSTAVO A. MADERO,CON BOTON,CON ALTAVOZ,9m,WIFI GRATUITO_ACTIVO,19.465846,-99.13078,"19.465846,-99.13078"
533,C. ORIENTE 107,C. NORTE 82 B,GERTRUDIS SANCHEZ 2A SECC.,GUSTAVO A. MADERO,CON BOTON,CON ALTAVOZ,9m,WIFI GRATUITO_ACTIVO,19.46279,-99.102081,"19.46279,-99.102081"
534,C. ORIENTE 107,C. NORTE 70,TABLAS DE SAN AGUSTIN,GUSTAVO A. MADERO,CON BOTON,CON ALTAVOZ,9m,WIFI GRATUITO_ACTIVO,19.464422,-99.108314,"19.464422,-99.108314"
535,AV. 9,EJE 5 SUR AV. CIRCUNVALACION,U.H. CHINAMPAC DE JUAREZ,IZTAPALAPA,CON BOTON,CON ALTAVOZ,9m,WIFI GRATUITO_ACTIVO,19.369063,-99.046834,"19.369063,-99.046834"
536,C. DANIEL,C. CARLOTA,GUADALUPE TEPEYAC,GUSTAVO A. MADERO,CON BOTON,CON ALTAVOZ,9m,WIFI GRATUITO_ACTIVO,19.465063,-99.12313,"19.465063,-99.12313"
537,AV. HENRY FORD,ENTRE C. ELSA Y C. GRACIELA,GUADALUPE TEPEYAC,GUSTAVO A. MADERO,CON BOTON,CON ALTAVOZ,9m,WIFI GRATUITO_ACTIVO,19.470468,-99.119362,"19.470468,-99.119362"
538,C. SAMUEL,C. LIDIA,GUADALUPE TEPEYAC,GUSTAVO A. MADERO,CON BOTON,SIN ALTAVOZ,9m,WIFI GRATUITO_ACTIVO,19.467885,-99.119607,"19.467885,-99.119607"
539,C. SAMUEL,C. AMALIA,GUADALUPE TEPEYAC,GUSTAVO A. MADERO,CON BOTON,SIN ALTAVOZ,9m,WIFI GRATUITO_ACTIVO,19.468705,-99.122294,"19.468705,-99.122294"
540,C. SHUMANN,C. TAMAGNO,VALLEJO,GUSTAVO A. MADERO,CON BOTON,SIN ALTAVOZ,9m,WIFI GRATUITO_ACTIVO,19.46831,-99.132222,"19.46831,-99.132222"
541,C. OCHOA DE MIRANDA,C. ADELINA PATTI,VALLEJO,GUSTAVO A. MADERO,CON BOTON,CON ALTAVOZ,9m,WIFI GRATUITO_ACTIVO,19.463695,-99.127988,"19.463695,-99.127988"
542,C. M. PLANA,C. CLAVE,VALLEJO PONIENTE,GUSTAVO A. MADERO,CON BOTON,CON ALTAVOZ,9m,WIFI GRATUITO_ACTIVO,19.466983,-99.14215,"19.466983,-99.14215"
543,C. COQUIMBO,C. LINDAVISTA,LINDAVISTA,GUSTAVO A. MADERO,CON BOTON,CON ALTAVOZ,9m,WIFI GRATUITO_ACTIVO,19.491423,-99.124837,"19.491423,-99.124837"
544,C. ROMULO ESCOBAR,C. ING. ANTONIO NARRO ACUÑA,INDUSTRIAL,GUSTAVO A. MADERO,CON BOTON,CON ALTAVOZ,9m,WIFI GRATUITO_ACTIVO,19.47068,-99.128737,"19.47068,-99.128737"
545,C. RICARTE,C. BAMBA,LINDAVISTA,GUSTAVO A. MADERO,CON BOTON,CON ALTAVOZ,9m,WIFI GRATUITO_ACTIVO,19.486675,-99.130389,"19.486675,-99.130389"
546,C. LINDAVISTA,C. VALPARAISO,TEPEYAC INSURGENTES,GUSTAVO A. MADERO,CON BOTON,CON ALTAVOZ,9m,WIFI GRATUITO_ACTIVO,19.488109,-99.121423,"19.488109,-99.121423"
547,AV. INSURGENTES NORTE,AV. VICTORIA,GUSTAVO A. MADERO,GUSTAVO A. MADERO,CON BOTON,CON ALTAVOZ,9m,WIFI GRATUITO_ACTIVO,19.47676,-99.131467,"19.47676,-99.131467"
548,C. MANDUJANO,C. 45 METROS,SAN BARTOLO ATEPEHUACAN,GUSTAVO A. MADERO,SIN BOTON,CON ALTAVOZ,9m,WIFI GRATUITO_ACTIVO,19.49161,-99.141352,"19.49161,-99.141352"
549,C. F.F.C.C HIDALGO,ENTRE C. ORIENTE 183 Y C. ORIENTE 185,AMPL. VILLA HERMOSA,GUSTAVO A. MADERO,CON BOTON,CON ALTAVOZ,9m,WIFI GRATUITO_ACTIVO,19.501934,-99.093842,"19.501934,-99.093842"
550,C. S. CENICEROS,C. CRUZ,LA CRUZ,GUSTAVO A. MADERO,SIN BOTON,SIN ALTAVOZ,9m,WIFI GRATUITO_ACTIVO,19.493896,-99.10212,"19.493896,-99.10212"
551,C. 312,C. GRAN CANAL,NUEVA ATZACOALCO,GUSTAVO A. MADERO,SIN BOTON,CON ALTAVOZ,9m,WIFI GRATUITO_ACTIVO,19.497882,-99.082872,"19.497882,-99.082872"
552,C. NICOLAS BRAVO,C. GRAL. PEDRO MA. ANAYA,MARTIN CARRERA,GUSTAVO A. MADERO,CON BOTON,CON ALTAVOZ,9m,WIFI GRATUITO_ACTIVO,19.485143,-99.11009,"19.485143,-99.11009"
553,C. 316,C. 323,NUEVA ATZACOALCO,GUSTAVO A. MADERO,CON BOTON,CON ALTAVOZ,9m,WIFI GRATUITO_ACTIVO,19.50217,-99.081807,"19.50217,-99.081807"
554,C. PUERTO TLACOTLALPAN,C. PUERTO TAMPICO,AMPLIACION CASAS ALEMAN,GUSTAVO A. MADERO,CON BOTON,SIN ALTAVOZ,9m,WIFI GRATUITO_ACTIVO,19.476076,-99.080812,"19.476076,-99.080812"
555,EJE 3 NORTE AV. 506,AV. JOSE LORETO FABELA,U. H. SAN JUAN DE ARAGON 2DA. SECC.,GUSTAVO A. MADERO,SIN BOTON,CON ALTAVOZ,9m,WIFI GRATUITO_ACTIVO,19.453112,-99.081801,"19.453112,-99.081801"
556,CALZ. DE LAS BOMBAS,C. ROSARIO CASTELLANOS,CULHUACAN CTM IX-B,COYOACAN,CON BOTON,CON ALTAVOZ,9m,WIFI GRATUITO_ACTIVO,19.309062,-99.104832,"19.309062,-99.104832"
557,AV. RIO DE LOS REMEDIOS,EJE CENTRAL LAZARO CARDENAS,PROGRESO NACIONAL,GUSTAVO A. MADERO,CON BOTON,CON ALTAVOZ,9m,WIFI GRATUITO_ACTIVO,19.515761,-99.154917,"19.515761,-99.154917"
558,AV. DE LAS TORRES,AV. SAN MIGUEL,BUENAVISTA,IZTAPALAPA,CON BOTON,CON ALTAVOZ,9m,REPORTE DE FALLA,19.330789,-99.029569,"19.330789,-99.029569"
559,C. MAR DE LAS LLUVIAS,C. ESTANISLAO RAMIREZ RUIZ,SELENE TLALTENCO,TLAHUAC,SIN BOTON,CON ALTAVOZ,9m,WIFI GRATUITO_ACTIVO,19.289834,-98.999076,"19.289834,-98.999076"
560,C. HENRY FORD,EJE 1 PONIENTE F.C. HIDALGO,GUADALUPE TEPEYAC,GUSTAVO A. MADERO,CON BOTON,CON ALTAVOZ,9m,WIFI GRATUITO_ACTIVO,19.469179,-99.116187,"19.469179,-99.116187"
561,EJE NORTE MONTEVIDEO,ENTRE C. CHOSICA Y C. CASMA,LINDAVISTA,GUSTAVO A. MADERO,CON BOTON,CON ALTAVOZ,9m,WIFI GRATUITO_ACTIVO,19.491144,-99.13571,"19.491144,-99.13571"
562,AV. INSTITUTO POLITECNICO NACIONAL,ENTRE EJE 5 NTE. MONTEVIDEO Y C. OTOVALO,LINDAVISTA,GUSTAVO A. MADERO,SIN BOTON,CON ALTAVOZ,9m,WIFI GRATUITO_ACTIVO,19.491987,-99.133223,"19.491987,-99.133223"
563,C. PERLILLAR,C. 13,PROGRESO NACIONAL,GUSTAVO A. MADERO,SIN BOTON,SIN ALTAVOZ,9m,WIFI GRATUITO_ACTIVO,19.518191,-99.160027,"19.518191,-99.160027"
564,AV. DE LA VENTISCA,ENTRE C. RIO SAN JAVIER Y BLVD. DEL TEMOLUCO,ACUEDUCTO DE GUADALUPE,GUSTAVO A. MADERO,CON BOTON,SIN ALTAVOZ,9m,WIFI GRATUITO_ACTIVO,19.52923,-99.1549,"19.52923,-99.1549"
565,C. NETZAHUALCOYOTL,C. MIRANDA,ARAGON,GUSTAVO A. MADERO,CON BOTON,CON ALTAVOZ,9m,WIFI GRATUITO_ACTIVO,19.479156,-99.116671,"19.479156,-99.116671"
566,AV. VICENTE VILLADA,AV. F. C. HIDALGO,ARAGON LA VILLA,GUSTAVO A. MADERO,CON BOTON,CON ALTAVOZ,9m,WIFI GRATUITO_ACTIVO,19.479288,-99.108676,"19.479288,-99.108676"
567,AV. SUR DE LOS 100 METROS,NORTE 21,NUEVA VALLEJO,GUSTAVO A. MADERO,CON BOTON,CON ALTAVOZ,9m,WIFI GRATUITO_ACTIVO,19.483684,-99.148671,"19.483684,-99.148671"
568,AV. 535,AV. 504,U.H. SAN JUAN DE ARAGON 1ra. SECCION,GUSTAVO A. MADERO,SIN BOTON,SIN ALTAVOZ,9m,WIFI GRATUITO_ACTIVO,19.452016,-99.090421,"19.452016,-99.090421"
569,AV. 608,AV. 412,U. H. SAN JUAN DE ARAGON,GUSTAVO A. MADERO,SIN BOTON,CON ALTAVOZ,9m,WIFI GRATUITO_ACTIVO,19.462212,-99.059181,"19.462212,-99.059181"
570,AV. VILLA DE AYALA,C. TAMAZULA,SAN FELIPE DE JESUS,GUSTAVO A. MADERO,SIN BOTON,SIN ALTAVOZ,9m,WIFI GRATUITO_ACTIVO,19.490889,-99.078227,"19.490889,-99.078227"
571,C. 317,C. 310,NUEVA ATZACOALCO,GUSTAVO A. MADERO,CON BOTON,CON ALTAVOZ,9m,WIFI GRATUITO_ACTIVO,19.496354,-99.086025,"19.496354,-99.086025"
572,EJE 1 OTE. F.C. HIDALGO,AV. VICTORIA ORIENTE,ESTRELLA,GUSTAVO A. MADERO,CON BOTON,CON ALTAVOZ,9m,WIFI GRATUITO_ACTIVO,19.471015,-99.114969,"19.471015,-99.114969"
573,C. M. LERDO DE TEJADA,C. GRAL. FELIPE ANGELES,LA CASILDA,GUSTAVO A. MADERO,SIN BOTON,CON ALTAVOZ,9m,WIFI GRATUITO_ACTIVO,19.558612,-99.129665,"19.558612,-99.129665"
574,C. JUVENTINO ROSAS,C. MIGUEL HIDALGO,CUAUTEPEC BARRIO ALTO,GUSTAVO A. MADERO,CON BOTON,SIN ALTAVOZ,9m,WIFI GRATUITO_ACTIVO,19.556945,-99.13546,"19.556945,-99.13546"
575,AV. INSURGENTES NORTE,ENTRE C. ANCON Y AV. RICARTE,TEPEYAC INSURGENTES,GUSTAVO A. MADERO,SIN BOTON,CON ALTAVOZ,9m,WIFI GRATUITO_ACTIVO,19.485577,-99.124232,"19.485577,-99.124232"
576,CALZ. MARGARITA MAZA DE JUAREZ,C. S.C.T.,U. H. PATERA VALLEJO,GUSTAVO A. MADERO,CON BOTON,CON ALTAVOZ,9m,WIFI GRATUITO_ACTIVO,19.507005,-99.15537,"19.507005,-99.15537"
577,EJE 5 NORTE AV. 412,EJE 4 NORTE AV. 510,BOSQUE DE SAN JUAN DE ARAGON,GUSTAVO A. MADERO,SIN BOTON,SIN ALTAVOZ,9m,WIFI GRATUITO_ACTIVO,19.466323,-99.073554,"19.466323,-99.073554"
578,C. TRES ANEGAS,ENTRE CDA. TRES ANEGAS Y URANO,SIETE MARAVILLAS,GUSTAVO A. MADERO,CON BOTON,CON ALTAVOZ,9m,WIFI GRATUITO_ACTIVO,19.516212,-99.149608,"19.516212,-99.149608"
579,AVENIDA CERRO DEL CHIQUIHUITE,C. VISTA HERMOSA,LA CASILDA,GUSTAVO A. MADERO,CON BOTON,CON ALTAVOZ,9m,WIFI GRATUITO_ACTIVO,19.556093,-99.126297,"19.556093,-99.126297"
580,CALZ. TICOMAN,C. AREQUIPA,LINDAVISTA,GUSTAVO A. MADERO,CON BOTON,CON ALTAVOZ,9m,WIFI GRATUITO_ACTIVO,19.492854,-99.121102,"19.492854,-99.121102"
581,AV. TOKIO,C. ATLACOMULCO,MALACATES,GUSTAVO A. MADERO,SIN BOTON,CON ALTAVOZ,9m,WIFI GRATUITO_ACTIVO,19.572624,-99.135454,"19.572624,-99.135454"
582,AV. JUAN DE DIOS BATIZ,ENTRE AV. MIGUEL BERNARD Y AV. INSTITUTO POLITECNICO NACIONAL,UNIDAD PROFESIONAL ADOLFO LOPEZ MATEOS,GUSTAVO A. MADERO,CON BOTON,CON ALTAVOZ,9m,WIFI GRATUITO_ACTIVO,19.503039,-99.133147,"19.503039,-99.133147"
583,AV. ACUEDUCTO,C. 30 DE JUNIO,SANTA MARIA TICOMAN,GUSTAVO A. MADERO,CON BOTON,CON ALTAVOZ,9m,WIFI GRATUITO_ACTIVO,19.517232,-99.127392,"19.517232,-99.127392"
584,AV. JUAN DE DIOS BATIZ,AV. INSTITUTO POLITECNICO NACIONAL,LINDAVISTA,GUSTAVO A. MADERO,CON BOTON,CON ALTAVOZ,9m,WIFI GRATUITO_ACTIVO,19.503059,-99.131012,"19.503059,-99.131012"
585,AV. SUR DE LOS CIEN METROS,ENTRE C. NORTE 17-A Y C. NORTE 15,MAGDALENA DE LAS SALINAS,GUSTAVO A. MADERO,CON BOTON,CON ALTAVOZ,9m,WIFI GRATUITO_ACTIVO,19.484313,-99.146472,"19.484313,-99.146472"
586,C. PONIENTE 116,AV. INSURGENTES NORTE,CAPULTITLAN,GUSTAVO A. MADERO,CON BOTON,CON ALTAVOZ,9m,WIFI GRATUITO_ACTIVO,19.477066,-99.133163,"19.477066,-99.133163"
587,AV. TLALNEPANTLA TENAYUCA,C. CUAUHTEMOC,SAN JOSE DE LA ESCALERA,GUSTAVO A. MADERO,CON BOTON,CON ALTAVOZ,9m,WIFI GRATUITO_ACTIVO,19.529488,-99.169877,"19.529488,-99.169877"
588,C. HUACHO,EJE 5 NORTE AV. MONTEVIDEO,SAN BARTOLO ATEPEHUACAN,GUSTAVO A. MADERO,CON BOTON,CON ALTAVOZ,9m,WIFI GRATUITO_ACTIVO,19.492289,-99.140123,"19.492289,-99.140123"
589,EJE CENTRAL LÁZARO CÁRDENAS AV. 100 MTS,C. NTE.1-D,PANAMERICANA,GUSTAVO A. MADERO,CON BOTON,CON ALTAVOZ,9m,WIFI GRATUITO_ACTIVO,19.475264,-99.138727,"19.475264,-99.138727"
590,AV. CANAL DEL DESFOGUE,C. FLOR DE LIZ,JUAN GONZALEZ ROMERO,GUSTAVO A. MADERO,SIN BOTON,CON ALTAVOZ,9m,WIFI GRATUITO_ACTIVO,19.50312,-99.090375,"19.50312,-99.090375"
591,AV. M. OTHON DE MENDIZABAL ORIENTE,AV. JUAN DE DIOS BATIZ,NUEVA INDUSTRIAL VALLEJO,GUSTAVO A. MADERO,CON BOTON,CON ALTAVOZ,9m,WIFI GRATUITO_ACTIVO,19.506418,-99.14674,"19.506418,-99.14674"
592,AV. LUIS YUREN,AV. RICARDO GONZALEZ RICO,C.T.M.,GUSTAVO A. MADERO,SIN BOTON,CON ALTAVOZ,9m,WIFI GRATUITO_ACTIVO,19.510337,-99.09787,"19.510337,-99.09787"
593,EJE CENTRAL LAZARO CARDENAS,AV. FORTUNA,MAGDALENA DE LAS SALINAS,GUSTAVO A. MADERO,CON BOTON,CON ALTAVOZ,9m,WIFI GRATUITO_ACTIVO,19.486232,-99.142986,"19.486232,-99.142986"
594,CALLE 1525,EJE 5 NORTE AVENIDA 412,U.H. SAN JUAN DE ARAGON VI SECC.,GUSTAVO A. MADERO,CON BOTON,SIN ALTAVOZ,9m,WIFI GRATUITO_ACTIVO,19.465074,-99.066638,"19.465074,-99.066638"
595,AV. 508,AV. 503,U. H. SAN JUAN DE ARAGÓN 1ra.SECCIÓN,GUSTAVO A. MADERO,CON BOTON,CON ALTAVOZ,9m,WIFI GRATUITO_ACTIVO,19.463128,-99.094573,"19.463128,-99.094573"
596,AV. 602,C. 661,U.H. CTM SAN JUAN DE ARAGON,GUSTAVO A. MADERO,SIN BOTON,SIN ALTAVOZ,9m,WIFI GRATUITO_ACTIVO,19.450238,-99.058534,"19.450238,-99.058534"
597,AV. 608,AV. 661,SAN JUAN DE ARAGON 4a. Y 5a. SECCION,GUSTAVO A. MADERO,CON BOTON,CON ALTAVOZ,9m,WIFI GRATUITO_ACTIVO,19.460919,-99.062616,"19.460919,-99.062616"
598,AV. ACUEDUCTO,C. CIEN FUEGOS,SAN PEDRO ZACATENCO,GUSTAVO A. MADERO,CON BOTON,SIN ALTAVOZ,9m,WIFI GRATUITO_ACTIVO,19.502587,-99.121338,"19.502587,-99.121338"
599,C. AUTOMATIZACION,C. TECNOLOGIA DE EXPLORACION,SOLIDARIDAD NACIONAL,GUSTAVO A. MADERO,CON BOTON,SIN ALTAVOZ,9m,WIFI GRATUITO_ACTIVO,19.532189,-99.152983,"19.532189,-99.152983"
600,AV. INSURGENTES NORTE,ENTRE C. EXCELSIOR Y C. BASILIO ROMO,GUADALUPE INSURGENTES,GUSTAVO A. MADERO,SIN BOTON,CON ALTAVOZ,9m,WIFI GRATUITO_ACTIVO,19.474608,-99.133238,"19.474608,-99.133238"
601,EJE CENTRAL LAZARO CARDENAS,AV. MONTEVIDEO,SAN BARTOLO ATEPEHUACAN,GUSTAVO A. MADERO,CON BOTON,CON ALTAVOZ,9m,WIFI GRATUITO_ACTIVO,19.493549,-99.146147,"19.493549,-99.146147"
602,AV. RICARDO FLORES MAGON,AV. PERIFERICO,AMPLIACION GABRIEL HERNANDEZ,GUSTAVO A. MADERO,CON BOTON,CON ALTAVOZ,9m,WIFI GRATUITO_ACTIVO,19.507163,-99.100994,"19.507163,-99.100994"
603,AV. INSURGENTES NORTE,C. EXCELSIOR,GUADALUPE INSURGENTES,GUSTAVO A. MADERO,SIN BOTON,CON ALTAVOZ,9m,WIFI GRATUITO_ACTIVO,19.475206,-99.132815,"19.475206,-99.132815"
604,C. IGNACIO ZARAGOZA,ENTRE C. BERRIOZABAL Y C. M. NEGRETE,AMPL. BENITO JUAREZ,GUSTAVO A. MADERO,CON BOTON,CON ALTAVOZ,9m,WIFI GRATUITO_ACTIVO,19.534797,-99.138873,"19.534797,-99.138873"
605,EJE CENTRAL LAZARO CARDENAS,C. 13,GUADALUPE PROLETARIA,GUSTAVO A. MADERO,CON BOTON,CON ALTAVOZ,9m,WIFI GRATUITO_ACTIVO,19.521925,-99.157877,"19.521925,-99.157877"
606,AV. HOSPITAL JUAREZ,C. PONIENTE 118,MAXIMINO AVILA CAMACHO,GUSTAVO A. MADERO,CON BOTON,CON ALTAVOZ,9m,WIFI GRATUITO_ACTIVO,19.479557,-99.137587,"19.479557,-99.137587"
607,ORIENTE 171,NORTE 92 B,LA ESMERALDA,GUSTAVO A. MADERO,CON BOTON,CON ALTAVOZ,9m,WIFI GRATUITO_ACTIVO,19.487781,-99.085677,"19.487781,-99.085677"
608,CALZADA CHALMA,C. TECNOLOGICO,ZONA ESCOLAR,GUSTAVO A. MADERO,CON BOTON,CON ALTAVOZ,9m,WIFI GRATUITO_ACTIVO,19.536969,-99.150857,"19.536969,-99.150857"
609,C. ROBERTO ESQUERRA,C. RICARTE,VALLE DE MADERO,GUSTAVO A. MADERO,SIN BOTON,SIN ALTAVOZ,9m,WIFI GRATUITO_ACTIVO,19.549815,-99.134634,"19.549815,-99.134634"
610,CALZADA TICOMAN,FRENTE C. PARANAGUA,RESIDENCIAL ZACATENCO,GUSTAVO A. MADERO,SIN BOTON,CON ALTAVOZ,9m,WIFI GRATUITO_ACTIVO,19.502528,-99.127495,"19.502528,-99.127495"
611,AV. 3-A,C. 16-A,SANTA ROSA,GUSTAVO A. MADERO,CON BOTON,SIN ALTAVOZ,9m,WIFI GRATUITO_ACTIVO,19.522089,-99.167275,"19.522089,-99.167275"
